,A,4030.9697,N,07955.1374,W,0.13,103.25,250218,,,A*70
$GPVTG,103.25,T,,M,0.13,N,0.2,K,A*08
$GPGGA,044917.000,4030.9699,N,07955.1374,W,1,04,2.8,320.5,M,-33.1,M,,0000*60
$GPGSA,A,3,17,19,02,12,,,,,,,,,7.3,2.8,6.7*32
$GPGSV,3,1,12,06,77,331,,19,67,061,25,17,51,087,33,02,47,260,34*79
$GPGSV,3,2,12,12,35,311,36,05,14,194,,03,10,038,,24,10,264,*7A
$GPGSV,3,3,12,28,08,155,,23,08,074,,09,07,107,,25,,325,*78
$GPRMC,044917.000,A,4030.9699,N,07955.1374,W,0.08,83.63,250218,,,A*4E
$GPVTG,83.63,T,,M,0.08,N,0.2,K,A*39
$GPGGA,044918.000,4030.9699,N,07955.1373,W,1,05,2.4,320.0,M,-33.1,M,,0000*60
$GPGSA,A,3,17,06,19,02,12,,,,,,,,4.6,2.4,4.0*3B
$GPRMC,044918.000,A,4030.9699,N,07955.1373,W,0.08,100.82,250218,,,A*73
$GPVTG,100.82,T,,M,0.08,N,0.2,K,A*0C
$GPGGA,044919.000,4030.9698,N,07955.1370,W,1,05,2.4,318.3,M,-33.1,M,,0000*6B
$GPGSA,A,3,17,06,19,02,12,,,,,,,,4.6,2.4,4.0*3B
$GPRMC,044919.000,A,4030.9698,N,07955.1370,W,0.11,111.75,250218,,,A*70
$GPVTG,111.75,T,,M,0.11,N,0.2,K,A*0C
$GPGGA,044920.000,4030.9697,N,07955.1367,W,1,05,2.4,316.4,M,-33.1,M,,0000*61
$GPGSA,A,3,17,06,19,02,12,,,,,,,,4.6,2.4,4.0*3B
$GPRMC,044920.000,A,4030.9697,N,07955.1367,W,0.19,124.40,250218,,,A*7B
$GPVTG,124.40,T,,M,0.19,N,0.3,K,A*05
$GPGGA,044921.000,4030.9696,N,07955.1365,W,1,05,2.4,315.1,M,-33.1,M,,0000*65
$GPGSA,A,3,17,06,19,02,12,,,,,,,,4.6,2.4,4.0*3B
$GPRMC,044921.000,A,4030.9696,N,07955.1365,W,0.17,123.50,250218,,,A*71
$GPVTG,123.50,T,,M,0.17,N,0.3,K,A*0D
$GPGGA,044922.000,4030.9695,N,07955.1362,W,1,05,2.4,313.2,M,-33.1,M,,0000*67
$GPGSA,A,3,17,06,19,02,12,,,,,,,,4.6,2.4,4.0*3B
$GPGSV,3,1,12,06,77,331,18,19,67,061,26,17,51,087,34,02,47,260,34*74
$GPGSV,3,2,12,12,35,311,36,05,14,194,,03,10,038,,24,10,264,*7A
$GPGSV,3,3,12,28,08,155,,23,08,074,,09,07,107,,25,,325,*78
$GPRMC,044922.000,A,4030.9695,N,07955.1362,W,0.21,125.81,250218,,,A*79
$GPVTG,125.81,T,,M,0.21,N,0.4,K,A*05
$GPGGA,044923.000,4030.9694,N,07955.1360,W,1,05,2.4,312.0,M,-33.1,M,,0000*66
$GPGSA,A,3,17,06,19,02,12,,,,,,,,4.6,2.4,4.0*3B
$GPRMC,044923.000,A,4030.9694,N,07955.1360,W,0.21,128.38,250218,,,A*74
$GPVTG,128.38,T,,M,0.21,N,0.4,K,A*0A
$GPGGA,044924.000,4030.9695,N,07955.1359,W,1,05,2.4,312.0,M,-33.1,M,,0000*6A
$GPGSA,A,3,17,06,19,02,12,,,,,,,,4.6,2.4,4.0*3B
$GPRMC,044924.000,A,4030.9695,N,07955.1359,W,0.22,132.19,250218,,,A*73
$GPVTG,132.19,T,,M,0.22,N,0.4,K,A*01
$GPGGA,044925.000,4030.9695,N,07955.1357,W,1,05,2.4,311.4,M,-33.1,M,,0000*62
$GPGSA,A,3,17,06,19,02,12,,,,,,,,4.6,2.4,4.0*3B
$GPRMC,044925.000,A,4030.9695,N,07955.1357,W,0.18,122.96,250218,,,A*73
$GPVTG,122.96,T,,M,0.18,N,0.3,K,A*09
$GPGGA,044926.000,4030.9697,N,07955.1357,W,1,05,2.4,311.7,M,-33.1,M,,0000*60
$GPGSA,A,3,17,06,19,02,12,,,,,,,,4.6,2.4,4.0*3B
$GPRMC,044926.000,A,4030.9697,N,07955.1357,W,0.16,119.25,250218,,,A*7C
$GPVTG,119.25,T,,M,0.16,N,0.3,K,A*07
$GPGGA,044927.000,4030.9697,N,07955.1355,W,1,05,2.4,311.3,M,-33.1,M,,0000*67
$GPGSA,A,3,17,06,19,02,12,,,,,,,,4.6,2.4,4.0*3B
$GPGSV,3,1,12,06,77,331,18,19,67,061,27,17,51,087,34,02,47,260,35*74
$GPGSV,3,2,12,12,35,311,36,05,14,194,,03,10,038,,24,10,264,20*78
$GPGSV,3,3,12,28,08,155,,23,08,074,,09,07,107,,25,,325,*78
$GPRMC,044927.000,A,4030.9697,N,07955.1355,W,0.17,113.51,250218,,,A*77
$GPVTG,113.51,T,,M,0.17,N,0.3,K,A*0F
$GPGGA,044928.000,4030.9699,N,07955.1355,W,1,05,2.4,311.7,M,-33.1,M,,0000*62
$GPGSA,A,3,17,06,19,02,12,,,,,,,,4.6,2.4,4.0*3B
$GPRMC,044928.000,A,4030.9699,N,07955.1355,W,0.14,121.93,250218,,,A*7A
$GPVTG,121.93,T,,M,0.14,N,0.3,K,A*03
$GPGGA,044929.000,4030.9701,N,07955.1355,W,1,05,2.4,312.8,M,-33.1,M,,0000*6F
$GPGSA,A,3,17,06,19,02,12,,,,,,,,4.6,2.4,4.0*3B
$GPRMC,044929.000,A,4030.9701,N,07955.1355,W,0.10,114.11,250218,,,A*73
$GPVTG,114.11,T,,M,0.10,N,0.2,K,A*0A
$GPGGA,044930.000,4030.9705,N,07955.1356,W,1,05,2.4,315.6,M,-33.1,M,,0000*69
$GPGSA,A,3,17,06,19,02,12,,,,,,,,4.6,2.4,4.0*3B
$GPRMC,044930.000,A,4030.9705,N,07955.1356,W,0.09,63.26,250218,,,A*41
$GPVTG,63.26,T,,M,0.09,N,0.2,K,A*37
$GPGGA,044931.000,4030.9707,N,07955.1357,W,1,05,2.4,316.9,M,-33.1,M,,0000*67
$GPGSA,A,3,17,06,19,02,12,,,,,,,,4.6,2.4,4.0*3B
$GPRMC,044931.000,A,4030.9707,N,07955.1357,W,0.08,39.84,250218,,,A*45
$GPVTG,39.84,T,,M,0.08,N,0.1,K,A*32
$GPGGA,044932.000,4030.9710,N,07955.1358,W,1,05,2.4,318.8,M,-33.1,M,,0000*62
$GPGSA,A,3,17,06,19,02,12,,,,,,,,4.6,2.4,4.0*3B
$GPGSV,3,1,12,06,77,331,25,19,67,061,28,17,51,087,34,02,47,260,34*74
$GPGSV,3,2,12,12,35,311,36,05,14,194,,03,10,038,,24,10,264,20*78
$GPGSV,3,3,12,28,08,155,,23,08,074,,09,07,107,,25,,325,*78
$GPRMC,044932.000,A,4030.9710,N,07955.1358,W,0.13,16.71,250218,,,A*42
$GPVTG,16.71,T,,M,0.13,N,0.2,K,A*3C
$GPGGA,044933.000,4030.9711,N,07955.1357,W,1,05,2.4,318.8,M,-33.1,M,,0000*6D
$GPGSA,A,3,17,06,19,02,12,,,,,,,,4.6,2.4,4.0*3B
$GPRMC,044933.000,A,4030.9711,N,07955.1357,W,0.11,29.89,250218,,,A*44
$GPVTG,29.89,T,,M,0.11,N,0.2,K,A*35
$GPGGA,044934.000,4030.9712,N,07955.1357,W,1,05,2.4,319.2,M,-33.1,M,,0000*62
$GPGSA,A,3,17,06,19,02,12,,,,,,,,4.6,2.4,4.0*3B
$GPRMC,044934.000,A,4030.9712,N,07955.1357,W,0.14,23.50,250218,,,A*4B
$GPVTG,23.50,T,,M,0.14,N,0.3,K,A*3F
$GPGGA,044935.000,4030.9713,N,07955.1356,W,1,05,2.4,319.3,M,-33.1,M,,0000*62
$GPGSA,A,3,17,06,19,02,12,,,,,,,,4.6,2.4,4.0*3B
$GPRMC,044935.000,A,4030.9713,N,07955.1356,W,0.11,3.94,250218,,,A*75
$GPVTG,3.94,T,,M,0.11,N,0.2,K,A*01
$GPGGA,044936.000,4030.9716,N,07955.1357,W,1,05,2.4,320.8,M,-33.1,M,,0000*64
$GPGSA,A,3,17,06,19,02,12,,,,,,,,4.6,2.4,4.0*3B
$GPRMC,044936.000,A,4030.9716,N,07955.1357,W,0.12,3.05,250218,,,A*79
$GPVTG,3.05,T,,M,0.12,N,0.2,K,A*0A
$GPGGA,044937.000,4030.9720,N,07955.1359,W,1,05,2.4,323.9,M,-33.1,M,,0000*6C
$GPGSA,A,3,17,06,19,02,12,,,,,,,,4.6,2.4,4.0*3B
$GPGSV,3,1,12,06,77,331,24,19,67,061,29,17,51,087,34,02,47,260,34*74
$GPGSV,3,2,12,12,35,311,36,05,14,194,,03,10,038,,24,10,264,19*72
$GPGSV,3,3,12,28,08,155,,23,08,074,,09,07,107,,25,,325,*78
$GPRMC,044937.000,A,4030.9720,N,07955.1359,W,0.17,353.21,250218,,,A*76
$GPVTG,353.21,T,,M,0.17,N,0.3,K,A*0E
$GPGGA,044938.000,4030.9721,N,07955.1360,W,1,05,2.4,324.7,M,-33.1,M,,0000*61
$GPGSA,A,3,17,06,19,02,12,,,,,,,,4.6,2.4,4.0*3B
$GPRMC,044938.000,A,4030.9721,N,07955.1360,W,0.18,359.53,250218,,,A*72
$GPVTG,359.53,T,,M,0.18,N,0.3,K,A*0E
$GPGGA,044939.000,4030.9724,N,07955.1361,W,1,05,2.4,326.4,M,-33.1,M,,0000*65
$GPGSA,A,3,17,06,19,02,12,,,,,,,,4.6,2.4,4.0*3B
$GPRMC,044939.000,A,4030.9724,N,07955.1361,W,0.21,345.98,250218,,,A*77
$GPVTG,345.98,T,,M,0.21,N,0.4,K,A*09
$GPGGA,044940.000,4030.9726,N,07955.1361,W,1,05,2.4,327.6,M,-33.1,M,,0000*6A
$GPGSA,A,3,17,06,19,02,12,,,,,,,,4.6,2.4,4.0*3B
$GPRMC,044940.000,A,4030.9726,N,07955.1361,W,0.18,346.85,250218,,,A*7E
$GPVTG,346.85,T,,M,0.18,N,0.3,K,A*0B
$GPGGA,044941.000,4030.9729,N,07955.1363,W,1,05,2.4,329.8,M,-33.1,M,,0000*66
$GPGSA,A,3,17,06,19,02,12,,,,,,,,4.6,2.4,4.0*3B
$GPRMC,044941.000,A,4030.9729,N,07955.1363,W,0.30,347.06,250218,,,A*72
$GPVTG,347.06,T,,M,0.30,N,0.6,K,A*0E
$GPGGA,044942.000,4030.9734,N,07955.1366,W,1,05,2.4,333.7,M,-33.1,M,,0000*68
$GPGSA,A,3,17,06,19,02,12,,,,,,,,4.6,2.4,4.0*3B
$GPGSV,3,1,12,06,77,332,23,19,66,062,29,17,51,088,33,02,47,260,34*7A
$GPGSV,3,2,12,12,35,311,35,05,14,194,,03,10,037,,24,10,264,19*7E
$GPGSV,3,3,12,28,09,156,,23,08,074,,09,07,107,,25,01,325,*7B
$GPRMC,044942.000,A,4030.9734,N,07955.1366,W,0.40,339.95,250218,,,A*7C
$GPVTG,339.95,T,,M,0.40,N,0.7,K,A*0B
$GPGGA,044943.000,4030.9737,N,07955.1368,W,1,05,2.4,336.1,M,-33.1,M,,0000*67
$GPGSA,A,3,17,06,19,02,12,,,,,,,,4.6,2.4,4.0*3B
$GPRMC,044943.000,A,4030.9737,N,07955.1368,W,0.38,338.84,250218,,,A*7E
$GPVTG,338.84,T,,M,0.38,N,0.7,K,A*05
$GPGGA,044944.000,4030.9739,N,07955.1369,W,1,05,2.4,337.2,M,-33.1,M,,0000*6D
$GPGSA,A,3,17,06,19,02,12,,,,,,,,4.6,2.4,4.0*3B
$GPRMC,044944.000,A,4030.9739,N,07955.1369,W,0.33,335.10,250218,,,A*7D
$GPVTG,335.10,T,,M,0.33,N,0.6,K,A*0F
$GPGGA,044945.000,4030.9741,N,07955.1370,W,1,05,2.4,338.8,M,-33.1,M,,0000*6E
$GPGSA,A,3,17,06,19,02,12,,,,,,,,4.6,2.4,4.0*3B
$GPRMC,044945.000,A,4030.9741,N,07955.1370,W,0.36,337.60,250218,,,A*7B
$GPVTG,337.60,T,,M,0.36,N,0.7,K,A*0E
$GPGGA,044946.000,4030.9743,N,07955.1371,W,1,05,2.4,340.1,M,-33.1,M,,0000*68
$GPGSA,A,3,17,06,19,02,12,,,,,,,,4.6,2.4,4.0*3B
$GPRMC,044946.000,A,4030.9743,N,07955.1371,W,0.34,339.51,250218,,,A*75
$GPVTG,339.51,T,,M,0.34,N,0.6,K,A*01
$GPGGA,044947.000,4030.9746,N,07955.1373,W,1,05,2.4,342.5,M,-33.1,M,,0000*68
$GPGSA,A,3,17,06,19,02,12,,,,,,,,4.6,2.4,4.0*3B
$GPGSV,3,1,12,06,77,332,23,19,66,062,31,17,51,088,33,02,48,260,34*7C
$GPGSV,3,2,12,12,35,311,35,03,10,037,,24,10,264,20,28,09,156,*79
$GPGSV,3,3,12,23,08,073,,09,07,107,,05,07,198,,25,01,325,*7F
$GPRMC,044947.000,A,4030.9746,N,07955.1373,W,0.37,336.85,250218,,,A*76
$GPVTG,336.85,T,,M,0.37,N,0.7,K,A*05
$GPGGA,044948.000,4030.9749,N,07955.1375,W,1,05,2.4,345.4,M,-33.1,M,,0000*68
$GPGSA,A,3,17,06,19,02,12,,,,,,,,4.6,2.4,4.0*3B
$GPRMC,044948.000,A,4030.9749,N,07955.1375,W,0.42,334.13,250218,,,A*7F
$GPVTG,334.13,T,,M,0.42,N,0.8,K,A*05
$GPGGA,044949.000,4030.9753,N,07955.1377,W,1,05,2.4,348.1,M,-33.1,M,,0000*68
$GPGSA,A,3,17,06,19,02,12,,,,,,,,4.6,2.4,4.0*3B
$GPRMC,044949.000,A,4030.9753,N,07955.1377,W,0.44,336.72,250218,,,A*74
$GPVTG,336.72,T,,M,0.44,N,0.8,K,A*06
$GPGGA,044950.000,4030.9756,N,07955.1379,W,1,05,2.4,350.8,M,-33.1,M,,0000*6B
$GPGSA,A,3,17,06,19,02,12,,,,,,,,4.6,2.4,4.0*3B
$GPRMC,044950.000,A,4030.9756,N,07955.1379,W,0.50,334.67,250218,,,A*74
$GPVTG,334.67,T,,M,0.50,N,0.9,K,A*04
$GPGGA,044951.000,4030.9757,N,07955.1380,W,1,05,2.4,351.8,M,-33.1,M,,0000*6C
$GPGSA,A,3,17,06,19,02,12,,,,,,,,4.6,2.4,4.0*3B
$GPRMC,044951.000,A,4030.9757,N,07955.1380,W,0.42,333.43,250218,,,A*70
$GPVTG,333.43,T,,M,0.42,N,0.8,K,A*07
$GPGGA,044952.000,4030.9759,N,07955.1381,W,1,05,2.4,353.2,M,-33.1,M,,0000*68
$GPGSA,A,3,17,06,19,02,12,,,,,,,,4.6,2.4,4.0*3B
$GPGSV,3,1,12,06,77,332,24,19,66,062,31,17,51,088,33,02,48,260,33*7C
$GPGSV,3,2,12,12,35,311,35,03,10,037,,24,10,264,19,28,09,156,*73
$GPGSV,3,3,12,23,08,073,,09,07,107,,05,07,198,,25,01,325,*7F
$GPRMC,044952.000,A,4030.9759,N,07955.1381,W,0.40,332.99,250218,,,A*78
$GPVTG,332.99,T,,M,0.40,N,0.7,K,A*0C
$GPGGA,044953.000,4030.9762,N,07955.1383,W,1,05,2.4,355.9,M,-33.1,M,,0000*6E
$GPGSA,A,3,17,06,19,02,12,,,,,,,,4.6,2.4,4.0*3B
$GPRMC,044953.000,A,4030.9762,N,07955.1383,W,0.46,334.23,250218,,,A*72
$GPVTG,334.23,T,,M,0.46,N,0.8,K,A*02
$GPGGA,044954.000,4030.9764,N,07955.1384,W,1,05,2.4,357.3,M,-33.1,M,,0000*60
$GPGSA,A,3,17,06,19,02,12,,,,,,,,4.6,2.4,4.0*3B
$GPRMC,044954.000,A,4030.9764,N,07955.1384,W,0.46,334.77,250218,,,A*75
$GPVTG,334.77,T,,M,0.46,N,0.8,K,A*03
$GPGGA,044955.000,4030.9764,N,07955.1384,W,1,05,2.4,357.3,M,-33.1,M,,0000*61
$GPGSA,A,3,17,06,19,02,12,,,,,,,,4.7,2.4,4.0*3A
$GPRMC,044955.000,A,4030.9764,N,07955.1384,W,0.45,337.19,250218,,,A*7C
$GPVTG,337.19,T,,M,0.45,N,0.8,K,A*0B
$GPGGA,044956.000,4030.9763,N,07955.1384,W,1,05,2.4,356.8,M,-33.1,M,,0000*6F
$GPGSA,A,3,17,06,19,02,12,,,,,,,,4.7,2.4,4.0*3A
$GPRMC,044956.000,A,4030.9763,N,07955.1384,W,0.41,336.97,250218,,,A*7B
$GPVTG,336.97,T,,M,0.41,N,0.8,K,A*08
$GPGGA,044957.000,4030.9763,N,07955.1383,W,1,05,2.4,356.8,M,-33.1,M,,0000*69
$GPGSA,A,3,17,06,19,02,12,,,,,,,,4.7,2.4,4.0*3A
$GPGSV,3,1,12,06,77,332,24,19,66,062,32,17,51,088,33,02,48,260,33*7F
$GPGSV,3,2,12,12,35,311,36,03,10,037,,24,10,264,19,28,09,156,*70
$GPGSV,3,3,12,23,08,073,,09,07,107,,05,07,198,,25,01,325,*7F
$GPRMC,044957.000,A,4030.9763,N,07955.1383,W,0.38,337.07,250218,,,A*7B
$GPVTG,337.07,T,,M,0.38,N,0.7,K,A*01
$GPGGA,044958.000,4030.9764,N,07955.1383,W,1,05,2.4,356.9,M,-33.1,M,,0000*60
$GPGSA,A,3,17,06,19,02,12,,,,,,,,4.7,2.4,4.0*3A
$GPRMC,044958.000,A,4030.9764,N,07955.1383,W,0.40,344.16,250218,,,A*78
$GPVTG,344.16,T,,M,0.40,N,0.7,K,A*0A
$GPGGA,044959.000,4030.9764,N,07955.1383,W,1,05,2.4,357.0,M,-33.1,M,,0000*69
$GPGSA,A,3,17,06,19,02,12,,,,,,,,4.7,2.4,4.0*3A
$GPRMC,044959.000,A,4030.9764,N,07955.1383,W,0.29,338.14,250218,,,A*7F
$GPVTG,338.14,T,,M,0.29,N,0.5,K,A*0E
$GPGGA,045000.000,4030.9763,N,07955.1383,W,1,05,2.4,357.0,M,-33.1,M,,0000*6A
$GPGSA,A,3,17,06,19,02,12,,,,,,,,4.7,2.4,4.0*3A
$GPRMC,045000.000,A,4030.9763,N,07955.1383,W,0.23,335.38,250218,,,A*75
$GPVTG,335.38,T,,M,0.23,N,0.4,K,A*06
$GPGGA,045001.000,4030.9763,N,07955.1383,W,1,05,2.4,356.9,M,-33.1,M,,0000*63
$GPGSA,A,3,17,06,19,02,12,,,,,,,,4.7,2.4,4.0*3A
$GPRMC,045001.000,A,4030.9763,N,07955.1383,W,0.23,340.87,250218,,,A*72
$GPVTG,340.87,T,,M,0.23,N,0.4,K,A*00
$GPGGA,045002.000,4030.9763,N,07955.1383,W,1,05,2.4,356.7,M,-33.1,M,,0000*6E
$GPGSA,A,3,17,06,19,02,12,,,,,,,,4.7,2.4,4.0*3A
$GPGSV,3,1,12,06,77,332,25,19,66,062,31,17,51,088,33,02,48,260,32*7C
$GPGSV,3,2,12,12,35,311,35,03,10,037,,24,10,264,17,28,09,156,*7D
$GPGSV,3,3,12,23,08,073,,09,07,107,,05,07,198,,25,01,325,*7F
$GPRMC,045002.000,A,4030.9763,N,07955.1383,W,0.18,343.17,250218,,,A*73
$GPVTG,343.17,T,,M,0.18,N,0.3,K,A*05
$GPGGA,045003.000,4030.9763,N,07955.1382,W,1,05,2.4,356.5,M,-33.1,M,,0000*6C
$GPGSA,A,3,17,06,19,02,12,,,,,,,,4.7,2.4,4.0*3A
$GPRMC,045003.000,A,4030.9763,N,07955.1382,W,0.20,347.03,250218,,,A*79
$GPVTG,347.03,T,,M,0.20,N,0.4,K,A*08
$GPGGA,045004.000,4030.9762,N,07955.1382,W,1,05,2.4,356.3,M,-33.1,M,,0000*6C
$GPGSA,A,3,17,06,19,02,12,,,,,,,,4.7,2.4,4.0*3A
$GPRMC,045004.000,A,4030.9762,N,07955.1382,W,0.16,346.65,250218,,,A*7B
$GPVTG,346.65,T,,M,0.16,N,0.3,K,A*0B
$GPGGA,045005.000,4030.9762,N,07955.1381,W,1,05,2.4,356.1,M,-33.1,M,,0000*6C
$GPGSA,A,3,17,06,19,02,12,,,,,,,,4.7,2.4,4.0*3A
$GPRMC,045005.000,A,4030.9762,N,07955.1381,W,0.14,348.94,250218,,,A*7B
$GPVTG,348.94,T,,M,0.14,N,0.3,K,A*09
$GPGGA,045006.000,4030.9762,N,07955.1381,W,1,05,2.4,355.8,M,-33.1,M,,0000*65
$GPGSA,A,3,17,06,19,02,12,,,,,,,,4.7,2.4,4.0*3A
$GPRMC,045006.000,A,4030.9762,N,07955.1381,W,0.13,351.95,250218,,,A*76
$GPVTG,351.95,T,,M,0.13,N,0.2,K,A*06
$GPGGA,045007.000,4030.9761,N,07955.1381,W,1,05,2.4,355.5,M,-33.1,M,,0000*6A
$GPGSA,A,3,17,06,19,02,12,,,,,,,,4.7,2.4,4.0*3A
$GPGSV,3,1,12,06,77,332,27,19,66,062,31,17,51,088,33,02,48,260,32*7E
$GPGSV,3,2,12,12,35,311,35,03,10,037,,24,10,264,,28,09,156,*7B
$GPGSV,3,3,12,23,08,073,,09,07,107,,05,07,198,,25,01,325,*7F
$GPRMC,045007.000,A,4030.9761,N,07955.1381,W,0.11,359.41,250218,,,A*77
$GPVTG,359.41,T,,M,0.11,N,0.2,K,A*05
$GPGGA,045008.000,4030.9761,N,07955.1380,W,1,05,2.4,355.1,M,-33.1,M,,0000*60
$GPGSA,A,3,17,06,19,02,12,,,,,,,,4.7,2.4,4.0*3A
$GPRMC,045008.000,A,4030.9761,N,07955.1380,W,0.14,357.78,250218,,,A*78
$GPVTG,357.78,T,,M,0.14,N,0.3,K,A*05
$GPGGA,045009.000,4030.9760,N,07955.1380,W,1,05,2.4,354.7,M,-33.1,M,,0000*67
$GPGSA,A,3,17,06,19,02,12,,,,,,,,4.7,2.4,4.0*3A
$GPRMC,045009.000,A,4030.9760,N,07955.1380,W,0.10,3.93,250218,,,A*7B
$GPVTG,3.93,T,,M,0.10,N,0.2,K,A*07
$GPGGA,045010.000,4030.9760,N,07955.1379,W,1,05,2.4,354.2,M,-33.1,M,,0000*6C
$GPGSA,A,3,17,06,19,02,12,,,,,,,,4.7,2.4,4.0*3A
$GPRMC,045010.000,A,4030.9760,N,07955.1379,W,0.08,22.82,250218,,,A*4F
$GPVTG,22.82,T,,M,0.08,N,0.1,K,A*3E
$GPGGA,045011.000,4030.9759,N,07955.1379,W,1,05,2.4,353.8,M,-33.1,M,,0000*6A
$GPGSA,A,3,17,06,19,02,12,,,,,,,,4.7,2.4,4.0*3A
$GPRMC,045011.000,A,4030.9759,N,07955.1379,W,0.10,16.27,250218,,,A*45
$GPVTG,16.27,T,,M,0.10,N,0.2,K,A*3C
$GPGGA,045012.000,4030.9759,N,07955.1378,W,1,05,2.4,353.3,M,-33.1,M,,0000*63
$GPGSA,A,3,17,06,19,02,12,,,,,,,,4.7,2.4,4.0*3A
$GPGSV,3,1,12,06,77,332,28,19,66,062,32,17,51,088,33,02,48,260,31*71
$GPGSV,3,2,12,12,35,311,35,03,10,037,,24,10,264,,28,09,156,*7B
$GPGSV,3,3,12,23,08,073,,09,07,107,,05,07,198,,25,01,325,*7F
$GPRMC,045012.000,A,4030.9759,N,07955.1378,W,0.06,23.52,250218,,,A*44
$GPVTG,23.52,T,,M,0.06,N,0.1,K,A*3C
$GPGGA,045013.000,4030.9758,N,07955.1378,W,1,05,2.4,352.8,M,-33.1,M,,0000*69
$GPGSA,A,3,17,06,19,02,12,,,,,,,,4.7,2.4,4.0*3A
$GPRMC,045013.000,A,4030.9758,N,07955.1378,W,0.08,32.52,250218,,,A*4A
$GPVTG,32.52,T,,M,0.08,N,0.2,K,A*31
$GPGGA,045014.000,4030.9758,N,07955.1377,W,1,05,2.4,352.3,M,-33.1,M,,0000*6A
$GPGSA,A,3,17,06,19,02,12,,,,,,,,4.7,2.4,4.0*3A
$GPRMC,045014.000,A,4030.9758,N,07955.1377,W,0.08,62.52,250218,,,A*47
$GPVTG,62.52,T,,M,0.08,N,0.1,K,A*37
$GPGGA,045015.000,4030.9757,N,07955.1377,W,1,05,2.4,351.9,M,-33.1,M,,0000*6D
$GPGSA,A,3,17,06,19,02,12,,,,,,,,4.7,2.4,4.0*3A
$GPRMC,045015.000,A,4030.9757,N,07955.1377,W,0.05,44.66,250218,,,A*47
$GPVTG,44.66,T,,M,0.05,N,0.1,K,A*39
$GPGGA,045016.000,4030.9757,N,07955.1376,W,1,05,2.4,351.4,M,-33.1,M,,0000*62
$GPGSA,A,3,17,06,19,02,12,,,,,,,,4.7,2.4,4.0*3A
$GPRMC,045016.000,A,4030.9757,N,07955.1376,W,0.08,71.21,250218,,,A*4D
$GPVTG,71.21,T,,M,0.08,N,0.1,K,A*31
$GPGGA,045017.000,4030.9756,N,07955.1376,W,1,05,2.4,350.9,M,-33.1,M,,0000*6E
$GPGSA,A,3,17,06,19,02,12,,,,,,,,4.7,2.4,4.0*3A
$GPGSV,3,1,12,06,77,333,30,19,66,062,32,17,51,088,33,02,48,260,31*79
$GPGSV,3,2,12,12,36,311,35,03,10,037,,24,10,263,19,28,09,156,*77
$GPGSV,3,3,12,23,08,073,,09,07,107,,05,07,198,14,25,01,325,*7A
$GPRMC,045017.000,A,4030.9756,N,07955.1376,W,0.08,62.86,250218,,,A*42
$GPVTG,62.86,T,,M,0.08,N,0.1,K,A*3E
$GPGGA,045018.000,4030.9756,N,07955.1375,W,1,05,2.4,350.4,M,-33.1,M,,0000*6F
$GPGSA,A,3,17,06,19,02,12,,,,,,,,4.7,2.4,4.0*3A
$GPRMC,045018.000,A,4030.9756,N,07955.1375,W,0.06,85.22,250218,,,A*47
$GPVTG,85.22,T,,M,0.06,N,0.1,K,A*37
$GPGGA,045019.000,4030.9755,N,07955.1375,W,1,05,2.4,350.0,M,-33.1,M,,0000*69
$GPGSA,A,3,17,06,19,02,12,,,,,,,,4.7,2.4,4.0*3A
$GPRMC,045019.000,A,4030.9755,N,07955.1375,W,0.08,70.42,250218,,,A*47
$GPVTG,70.42,T,,M,0.08,N,0.1,K,A*35
$GPGGA,045020.000,4030.9755,N,07955.1375,W,1,05,2.4,349.6,M,-33.1,M,,0000*6D
$GPGSA,A,3,17,06,19,02,12,,,,,,,,4.7,2.4,4.0*3A
$GPRMC,045020.000,A,4030.9755,N,07955.1375,W,0.08,69.50,250218,,,A*46
$GPVTG,69.50,T,,M,0.08,N,0.1,K,A*3E
$GPGGA,045021.000,4030.9754,N,07955.1374,W,1,05,2.4,349.2,M,-33.1,M,,0000*68
$GPGSA,A,3,17,06,19,02,12,,,,,,,,4.7,2.4,4.0*3A
$GPRMC,045021.000,A,4030.9754,N,07955.1374,W,0.08,85.59,250218,,,A*4C
$GPVTG,85.59,T,,M,0.08,N,0.2,K,A*36
$GPGGA,045022.000,4030.9754,N,07955.1374,W,1,05,2.4,348.8,M,-33.1,M,,0000*60
$GPGSA,A,3,17,06,19,02,12,,,,,,,,4.7,2.4,4.0*3A
$GPGSV,3,1,12,06,77,333,30,19,66,062,32,17,51,088,33,02,48,260,31*79
$GPGSV,3,2,12,12,36,311,34,03,10,037,,24,10,263,19,28,09,156,*76
$GPGSV,3,3,12,23,08,073,,09,07,107,,05,07,198,14,25,01,325,*7A
$GPRMC,045022.000,A,4030.9754,N,07955.1374,W,0.08,82.69,250218,,,A*4B
$GPVTG,82.69,T,,M,0.08,N,0.1,K,A*31
$GPGGA,045023.000,4030.9754,N,07955.1374,W,1,05,2.4,348.5,M,-33.1,M,,0000*6C
$GPGSA,A,3,17,06,19,02,12,,,,,,,,4.7,2.4,4.0*3A
$GPRMC,045023.000,A,4030.9754,N,07955.1374,W,0.08,105.39,250218,,,A*71
$GPVTG,105.39,T,,M,0.08,N,0.2,K,A*09
$GPGGA,045024.000,4030.9753,N,07955.1374,W,1,05,2.4,348.2,M,-33.1,M,,0000*6B
$GPGSA,A,3,17,06,19,02,12,,,,,,,,4.7,2.4,4.0*3A
$GPRMC,045024.000,A,4030.9753,N,07955.1374,W,0.10,73.19,250218,,,A*4A
$GPVTG,73.19,T,,M,0.10,N,0.2,K,A*32
$GPGGA,045025.000,4030.9753,N,07955.1373,W,1,05,2.4,347.8,M,-33.1,M,,0000*68
$GPGSA,A,3,17,06,19,02,12,,,,,,,,4.7,2.4,4.0*3A
$GPRMC,045025.000,A,4030.9753,N,07955.1373,W,0.09,91.36,250218,,,A*45
$GPVTG,91.36,T,,M,0.09,N,0.2,K,A*3B
$GPGGA,045026.000,4030.9752,N,07955.1373,W,1,05,2.4,347.5,M,-33.1,M,,0000*67
$GPGSA,A,3,17,06,19,02,12,,,,,,,,4.7,2.4,4.0*3A
$GPRMC,045026.000,A,4030.9752,N,07955.1373,W,0.09,101.55,250218,,,A*7A
$GPVTG,101.55,T,,M,0.09,N,0.2,K,A*06
$GPGGA,045027.000,4030.9752,N,07955.1373,W,1,05,2.5,347.2,M,-33.1,M,,0000*60
$GPGSA,A,3,17,06,19,02,12,,,,,,,,4.7,2.5,4.0*3B
$GPGSV,3,1,12,06,77,333,31,19,66,062,32,17,51,088,33,02,48,260,32*7B
$GPGSV,3,2,12,12,36,311,34,03,10,037,,24,10,263,21,28,09,156,*7D
$GPGSV,3,3,12,23,08,073,,09,07,107,,05,07,198,14,25,01,325,*7A
$GPRMC,045027.000,A,4030.9752,N,07955.1373,W,0.09,100.09,250218,,,A*73
$GPVTG,100.09,T,,M,0.09,N,0.2,K,A*0E
$GPGGA,045028.000,4030.9752,N,07955.1373,W,1,05,2.5,346.9,M,-33.1,M,,0000*65
$GPGSA,A,3,17,06,19,02,12,,,,,,,,4.7,2.5,4.0*3B
$GPRMC,045028.000,A,4030.9752,N,07955.1373,W,0.11,120.46,250218,,,A*7C
$GPVTG,120.46,T,,M,0.11,N,0.2,K,A*0E
$GPGGA,045029.000,4030.9751,N,07955.1373,W,1,05,2.5,346.7,M,-33.1,M,,0000*69
$GPGSA,A,3,17,06,19,02,12,,,,,,,,4.7,2.5,4.0*3B
$GPRMC,045029.000,A,4030.9751,N,07955.1373,W,0.08,98.77,250218,,,A*46
$GPVTG,98.77,T,,M,0.08,N,0.2,K,A*36
$GPGGA,045030.000,4030.9751,N,07955.1372,W,1,05,2.5,346.4,M,-33.1,M,,0000*63
$GPGSA,A,3,17,06,19,02,12,,,,,,,,4.7,2.5,4.0*3B
$GPRMC,045030.000,A,4030.9751,N,07955.1372,W,0.09,98.14,250218,,,A*4B
$GPVTG,98.14,T,,M,0.09,N,0.2,K,A*32
$GPGGA,045031.000,4030.9751,N,07955.1372,W,1,05,2.5,346.2,M,-33.1,M,,0000*64
$GPGSA,A,3,17,06,19,02,12,,,,,,,,4.7,2.5,4.0*3B
$GPRMC,045031.000,A,4030.9751,N,07955.1372,W,0.08,97.01,250218,,,A*40
$GPVTG,97.01,T,,M,0.08,N,0.1,K,A*3B
$GPGGA,045032.000,4030.9750,N,07955.1372,W,1,05,2.5,346.0,M,-33.1,M,,0000*64
$GPGSA,A,3,17,06,19,02,12,,,,,,,,4.7,2.5,4.0*3B
$GPGSV,3,1,12,06,77,333,31,19,66,062,32,17,51,088,33,02,48,260,32*7B
$GPGSV,3,2,12,12,36,311,33,03,10,037,,24,10,263,22,28,09,156,*79
$GPGSV,3,3,12,23,08,073,,09,07,107,,05,07,198,15,25,01,325,*7B
$GPRMC,045032.000,A,4030.9750,N,07955.1372,W,0.09,95.46,250218,,,A*42
$GPVTG,95.46,T,,M,0.09,N,0.2,K,A*38
$GPGGA,045033.000,4030.9750,N,07955.1372,W,1,05,2.5,345.8,M,-33.1,M,,0000*6E
$GPGSA,A,3,17,06,19,02,12,,,,,,,,4.7,2.5,4.0*3B
$GPRMC,045033.000,A,4030.9750,N,07955.1372,W,0.09,95.82,250218,,,A*4B
$GPVTG,95.82,T,,M,0.09,N,0.2,K,A*30
$GPGGA,045034.000,4030.9750,N,07955.1372,W,1,05,2.5,345.6,M,-33.1,M,,0000*67
$GPGSA,A,3,17,06,19,02,12,,,,,,,,4.7,2.5,4.0*3B
$GPRMC,045034.000,A,4030.9750,N,07955.1372,W,0.08,100.56,250218,,,A*79
$GPVTG,100.56,T,,M,0.08,N,0.1,K,A*06
$GPGGA,045035.000,4030.9749,N,07955.1372,W,1,05,2.5,345.5,M,-33.1,M,,0000*6D
$GPGSA,A,3,17,06,19,02,12,,,,,,,,4.7,2.5,4.0*3B
$GPRMC,045035.000,A,4030.9749,N,07955.1372,W,0.10,98.89,250218,,,A*4B
$GPVTG,98.89,T,,M,0.10,N,0.2,K,A*3E
$GPGGA,045036.000,4030.9749,N,07955.1372,W,1,05,2.5,345.3,M,-33.1,M,,0000*68
$GPGSA,A,3,17,06,19,02,12,,,,,,,,4.7,2.5,4.0*3B
$GPRMC,045036.000,A,4030.9749,N,07955.1372,W,0.11,103.65,250218,,,A*78
$GPVTG,103.65,T,,M,0.11,N,0.2,K,A*0E
$GPGGA,045037.000,4030.9749,N,07955.1371,W,1,05,2.5,345.2,M,-33.1,M,,0000*6B
$GPGSA,A,3,17,06,19,02,12,,,,,,,,4.7,2.5,4.0*3B
$GPGSV,3,1,12,06,77,333,32,19,66,062,32,17,51,088,32,02,48,260,33*78
$GPGSV,3,2,12,12,36,311,33,03,10,037,,24,10,263,22,28,09,156,*79
$GPGSV,3,3,12,23,08,073,,09,07,107,,05,07,198,16,25,01,325,*78
$GPRMC,045037.000,A,4030.9749,N,07955.1371,W,0.07,92.72,250218,,,A*42
$GPVTG,92.72,T,,M,0.07,N,0.1,K,A*35
$GPGGA,045038.000,4030.9749,N,07955.1371,W,1,05,2.5,345.1,M,-33.1,M,,0000*67
$GPGSA,A,3,17,06,19,02,12,,,,,,,,4.7,2.5,4.0*3B
$GPRMC,045038.000,A,4030.9749,N,07955.1371,W,0.08,97.84,250218,,,A*4E
$GPVTG,97.84,T,,M,0.08,N,0.1,K,A*36
$GPGGA,045039.000,4030.9748,N,07955.1371,W,1,05,2.5,345.0,M,-33.1,M,,0000*66
$GPGSA,A,3,17,06,19,02,12,,,,,,,,4.7,2.5,4.0*3B
$GPRMC,045039.000,A,4030.9748,N,07955.1371,W,0.09,96.24,250218,,,A*44
$GPVTG,96.24,T,,M,0.09,N,0.2,K,A*3F
$GPGGA,045040.000,4030.9748,N,07955.1371,W,1,05,2.5,344.9,M,-33.1,M,,0000*60
$GPGSA,A,3,17,06,19,02,12,,,,,,,,4.7,2.5,4.0*3B
$GPRMC,045040.000,A,4030.9748,N,07955.1371,W,0.08,80.86,250218,,,A*44
$GPVTG,80.86,T,,M,0.08,N,0.2,K,A*31
$GPGGA,045041.000,4030.9748,N,07955.1371,W,1,05,2.5,344.8,M,-33.1,M,,0000*60
$GPGSA,A,3,17,06,19,02,12,,,,,,,,4.7,2.5,4.0*3B
$GPRMC,045041.000,A,4030.9748,N,07955.1371,W,0.07,79.60,250218,,,A*44
$GPVTG,79.60,T,,M,0.07,N,0.1,K,A*33
$GPGGA,045042.000,4030.9748,N,07955.1371,W,1,05,2.5,344.8,M,-33.1,M,,0000*63
$GPGSA,A,3,17,06,19,02,12,,,,,,,,4.7,2.5,4.0*3B
$GPGSV,3,1,12,06,77,334,32,19,66,063,32,17,51,088,32,02,48,261,33*7F
$GPGSV,3,2,12,12,36,310,32,03,10,037,,24,10,263,21,28,09,156,*7A
$GPGSV,3,3,12,23,08,073,,09,07,107,,05,07,198,17,25,01,325,*79
$GPRMC,045042.000,A,4030.9748,N,07955.1371,W,0.09,98.76,250218,,,A*41
$GPVTG,98.76,T,,M,0.09,N,0.2,K,A*36
$GPGGA,045043.000,4030.9748,N,07955.1371,W,1,05,2.5,344.7,M,-33.1,M,,0000*6D
$GPGSA,A,3,17,06,19,02,12,,,,,,,,4.7,2.5,4.0*3B
$GPRMC,045043.000,A,4030.9748,N,07955.1371,W,0.08,86.32,250218,,,A*4E
$GPVTG,86.32,T,,M,0.08,N,0.1,K,A*3B
$GPGGA,045044.000,4030.9748,N,07955.1371,W,1,05,2.5,344.7,M,-33.1,M,,0000*6A
$GPGSA,A,3,17,06,19,02,12,,,,,,,,4.7,2.5,4.0*3B
$GPRMC,045044.000,A,4030.9748,N,07955.1371,W,0.09,92.16,250218,,,A*4B
$GPVTG,92.16,T,,M,0.09,N,0.2,K,A*3A
$GPGGA,045045.000,4030.9748,N,07955.1371,W,1,05,2.5,344.7,M,-33.1,M,,0000*6B
$GPGSA,A,3,17,06,19,02,12,,,,,,,,4.7,2.5,4.0*3B
$GPRMC,045045.000,A,4030.9748,N,07955.1371,W,0.08,66.76,250218,,,A*46
$GPVTG,66.76,T,,M,0.08,N,0.2,K,A*36
$GPGGA,045046.000,4030.9748,N,07955.1371,W,1,05,2.5,344.7,M,-33.1,M,,0000*68
$GPGSA,A,3,17,06,19,02,12,,,,,,,,4.7,2.5,4.0*3B
$GPRMC,045046.000,A,4030.9748,N,07955.1371,W,0.06,67.93,250218,,,A*41
$GPVTG,67.93,T,,M,0.06,N,0.1,K,A*31
$GPGGA,045047.000,4030.9748,N,07955.1371,W,1,05,2.5,344.7,M,-33.1,M,,0000*69
$GPGSA,A,3,17,06,19,02,12,,,,,,,,4.7,2.5,4.0*3B
$GPGSV,3,1,12,06,77,335,33,19,66,063,32,17,51,088,33,02,48,261,33*7E
$GPGSV,3,2,12,12,36,310,31,03,10,037,,24,10,263,20,28,09,156,*78
$GPGSV,3,3,12,23,08,073,,09,07,107,,05,07,198,18,25,01,325,*76
$GPRMC,045047.000,A,4030.9748,N,07955.1371,W,0.07,93.94,250218,,,A*4D
$GPVTG,93.94,T,,M,0.07,N,0.1,K,A*3C
$GPGGA,045048.000,4030.9748,N,07955.1371,W,1,05,2.5,344.8,M,-33.1,M,,0000*69
$GPGSA,A,3,17,06,19,02,12,,,,,,,,4.7,2.5,4.0*3B
$GPRMC,045048.000,A,4030.9748,N,07955.1371,W,0.08,75.79,250218,,,A*46
$GPVTG,75.79,T,,M,0.08,N,0.2,K,A*3B
$GPGGA,045049.000,4030.9748,N,07955.1371,W,1,05,2.5,344.8,M,-33.1,M,,0000*68
$GPGSA,A,3,17,06,19,02,12,,,,,,,,4.7,2.5,4.0*3B
$GPRMC,045049.000,A,4030.9748,N,07955.1371,W,0.09,50.47,250218,,,A*4C
$GPVTG,50.47,T,,M,0.09,N,0.2,K,A*30
$GPGGA,045050.000,4030.9749,N,07955.1371,W,1,05,2.5,344.9,M,-33.1,M,,0000*60
$GPGSA,A,3,17,06,19,02,12,,,,,,,,4.7,2.5,4.0*3B
$GPRMC,045050.000,A,4030.9749,N,07955.1371,W,0.06,68.50,250218,,,A*47
$GPVTG,68.50,T,,M,0.06,N,0.1,K,A*31
$GPGGA,045051.000,4030.9749,N,07955.1371,W,1,05,2.5,344.9,M,-33.1,M,,0000*61
$GPGSA,A,3,17,06,19,02,12,,,,,,,,4.7,2.5,4.0*3B
$GPRMC,045051.000,A,4030.9749,N,07955.1371,W,0.08,62.66,250218,,,A*47
$GPVTG,62.66,T,,M,0.08,N,0.1,K,A*30
$GPGGA,045052.000,4030.9749,N,07955.1371,W,1,05,2.5,345.0,M,-33.1,M,,0000*6A
$GPGSA,A,3,17,06,19,02,12,,,,,,,,4.7,2.5,4.0*3B
$GPGSV,3,1,12,06,77,335,33,19,66,063,31,17,51,088,32,02,48,261,34*7B
$GPGSV,3,2,12,12,36,310,30,03,10,037,,24,10,263,19,28,09,156,*73
$GPGSV,3,3,12,23,08,073,,09,07,107,,05,07,198,18,25,01,325,*76
$GPRMC,045052.000,A,4030.9749,N,07955.1371,W,0.08,46.73,250218,,,A*46
$GPVTG,46.73,T,,M,0.08,N,0.1,K,A*32
$GPGGA,045053.000,4030.9749,N,07955.1371,W,1,05,2.5,345.1,M,-33.1,M,,0000*6A
$GPGSA,A,3,17,06,19,02,12,,,,,,,,4.7,2.5,4.0*3B
$GPRMC,045053.000,A,4030.9749,N,07955.1371,W,0.06,81.58,250218,,,A*4B
$GPVTG,81.58,T,,M,0.06,N,0.1,K,A*3E
$GPGGA,045054.000,4030.9749,N,07955.1371,W,1,05,2.5,345.2,M,-33.1,M,,0000*6E
$GPGSA,A,3,17,06,19,02,12,,,,,,,,4.7,2.5,4.0*3B
$GPRMC,045054.000,A,4030.9749,N,07955.1371,W,0.10,48.97,250218,,,A*4D
$GPVTG,48.97,T,,M,0.10,N,0.2,K,A*3C
$GPGGA,045055.000,4030.9750,N,07955.1371,W,1,05,2.5,345.3,M,-33.1,M,,0000*66
$GPGSA,A,3,17,06,19,02,12,,,,,,,,4.7,2.5,4.0*3B
$GPRMC,045055.000,A,4030.9750,N,07955.1371,W,0.05,79.73,250218,,,A*48
$GPVTG,79.73,T,,M,0.05,N,0.1,K,A*33
$GPGGA,045056.000,4030.9750,N,07955.1371,W,1,05,2.5,345.5,M,-33.1,M,,0000*63
$GPGSA,A,3,17,06,19,02,12,,,,,,,,4.7,2.5,4.0*3B
$GPRMC,045056.000,A,4030.9750,N,07955.1371,W,0.04,55.58,250218,,,A*4D
$GPVTG,55.58,T,,M,0.04,N,0.1,K,A*35
$GPGGA,045057.000,4030.9751,N,07955.1371,W,1,05,2.5,345.7,M,-33.1,M,,0000*61
$GPGSA,A,3,17,06,19,02,12,,,,,,,,4.7,2.5,4.0*3B
$GPGSV,3,1,12,06,77,335,33,19,66,063,31,17,51,088,32,02,48,261,34*7B
$GPGSV,3,2,12,12,36,310,26,03,10,037,,24,10,263,18,28,09,156,*75
$GPGSV,3,3,12,23,08,073,,09,07,107,,05,07,198,18,25,01,325,*76
$GPRMC,045057.000,A,4030.9751,N,07955.1371,W,0.08,47.36,250218,,,A*4A
$GPVTG,47.36,T,,M,0.08,N,0.2,K,A*31
$GPGGA,045058.000,4030.9753,N,07955.1371,W,1,05,2.5,345.6,M,-33.1,M,,0000*6D
$GPGSA,A,3,17,06,19,02,12,,,,,,,,4.7,2.5,4.0*3B
$GPRMC,045058.000,A,4030.9753,N,07955.1371,W,0.12,17.12,250218,,,A*4F
$GPVTG,17.12,T,,M,0.12,N,0.2,K,A*39
$GPGGA,045059.000,4030.9755,N,07955.1372,W,1,05,2.5,345.6,M,-33.1,M,,0000*69
$GPGSA,A,3,17,06,19,02,12,,,,,,,,4.7,2.5,4.0*3B
$GPRMC,045059.000,A,4030.9755,N,07955.1372,W,0.15,7.78,250218,,,A*71
$GPVTG,7.78,T,,M,0.15,N,0.3,K,A*02
$GPGGA,045100.000,4030.9758,N,07955.1372,W,1,05,2.5,345.5,M,-33.1,M,,0000*6A
$GPGSA,A,3,17,06,19,02,12,,,,,,,,4.7,2.5,4.0*3B
$GPRMC,045100.000,A,4030.9758,N,07955.1372,W,0.14,20.38,250218,,,A*41
$GPVTG,20.38,T,,M,0.14,N,0.3,K,A*32
$GPGGA,045101.000,4030.9760,N,07955.1373,W,1,05,2.5,345.4,M,-33.1,M,,0000*60
$GPGSA,A,3,17,06,19,02,12,,,,,,,,4.7,2.5,4.0*3B
$GPRMC,045101.000,A,4030.9760,N,07955.1373,W,0.15,15.80,250218,,,A*4E
$GPVTG,15.80,T,,M,0.15,N,0.3,K,A*36
$GPGGA,045102.000,4030.9764,N,07955.1373,W,1,05,2.5,345.1,M,-33.1,M,,0000*62
$GPGSA,A,3,17,06,19,02,12,,,,,,,,4.7,2.5,4.0*3B
$GPGSV,3,1,12,06,77,335,33,19,66,063,31,17,51,088,30,02,48,261,35*78
$GPGSV,3,2,12,12,36,310,25,03,10,037,,24,10,263,17,28,09,156,*79
$GPGSV,3,3,12,23,08,073,,09,07,107,,05,07,198,18,25,01,325,*76
$GPRMC,045102.000,A,4030.9764,N,07955.1373,W,0.28,2.51,250218,,,A*7D
$GPVTG,2.51,T,,M,0.28,N,0.5,K,A*04
$GPGGA,045103.000,4030.9769,N,07955.1374,W,1,05,2.5,344.7,M,-33.1,M,,0000*6E
$GPGSA,A,3,17,06,19,02,12,,,,,,,,4.7,2.5,4.0*3B
$GPRMC,045103.000,A,4030.9769,N,07955.1374,W,0.26,4.69,250218,,,A*75
$GPVTG,4.69,T,,M,0.26,N,0.5,K,A*07
$GPGGA,045104.000,4030.9772,N,07955.1374,W,1,05,2.5,344.5,M,-33.1,M,,0000*61
$GPGSA,A,3,17,06,19,02,12,,,,,,,,4.7,2.5,4.0*3B
$GPRMC,045104.000,A,4030.9772,N,07955.1374,W,0.14,114.34,250218,,,A*71
$GPVTG,114.34,T,,M,0.14,N,0.3,K,A*08
$GPGGA,045105.000,4030.9777,N,07955.1375,W,1,05,2.5,344.0,M,-33.1,M,,0000*61
$GPGSA,A,3,17,06,19,02,12,,,,,,,,4.7,2.5,4.0*3B
$GPRMC,045105.000,A,4030.9777,N,07955.1375,W,0.15,20.69,250218,,,A*4B
$GPVTG,20.69,T,,M,0.15,N,0.3,K,A*37
$GPGGA,045106.000,4030.9783,N,07955.1375,W,1,05,2.5,343.4,M,-33.1,M,,0000*6A
$GPGSA,A,3,17,06,19,02,12,,,,,,,,4.7,2.5,4.0*3B
$GPRMC,045106.000,A,4030.9783,N,07955.1375,W,0.38,149.80,250218,,,A*75
$GPVTG,149.80,T,,M,0.38,N,0.7,K,A*05
$GPGGA,045107.000,4030.9784,N,07955.1375,W,1,05,2.5,343.3,M,-33.1,M,,0000*6B
$GPGSA,A,3,17,06,19,02,12,,,,,,,,4.7,2.5,4.0*3B
$GPGSV,3,1,12,06,77,335,33,19,66,063,31,17,51,088,30,02,48,261,35*78
$GPGSV,3,2,12,12,36,310,25,03,10,037,,24,10,263,,28,09,156,*7F
$GPGSV,3,3,12,23,08,073,,09,07,107,,05,07,198,17,25,01,325,*79
$GPRMC,045107.000,A,4030.9784,N,07955.1375,W,0.11,142.34,250218,,,A*7C
$GPVTG,142.34,T,,M,0.11,N,0.2,K,A*0F
$GPGGA,045108.000,4030.9784,N,07955.1375,W,1,05,2.5,343.3,M,-33.1,M,,0000*64
$GPGSA,A,3,17,06,19,02,12,,,,,,,,4.7,2.5,4.0*3B
$GPRMC,045108.000,A,4030.9784,N,07955.1375,W,0.22,357.37,250218,,,A*76
$GPVTG,357.37,T,,M,0.22,N,0.4,K,A*0C
$GPGGA,045109.000,4030.9787,N,07955.1376,W,1,05,2.5,343.2,M,-33.1,M,,0000*64
$GPGSA,A,3,17,06,19,02,12,,,,,,,,4.7,2.5,4.0*3B
$GPRMC,045109.000,A,4030.9787,N,07955.1376,W,0.45,152.96,250218,,,A*7A
$GPVTG,152.96,T,,M,0.45,N,0.8,K,A*0D
$GPGGA,045110.000,4030.9788,N,07955.1376,W,1,05,2.5,343.2,M,-33.1,M,,0000*63
$GPGSA,A,3,17,06,19,02,12,,,,,,,,4.7,2.5,4.0*3B
$GPRMC,045110.000,A,4030.9788,N,07955.1376,W,0.36,157.34,250218,,,A*74
$GPVTG,157.34,T,,M,0.36,N,0.7,K,A*0B
$GPGGA,045111.000,4030.9792,N,07955.1376,W,1,05,2.5,342.8,M,-33.1,M,,0000*62
$GPGSA,A,3,17,06,19,02,12,,,,,,,,4.7,2.5,4.0*3B
$GPRMC,045111.000,A,4030.9792,N,07955.1376,W,0.19,356.94,250218,,,A*7A
$GPVTG,356.94,T,,M,0.19,N,0.3,K,A*0B
$GPGGA,045112.000,4030.9792,N,07955.1376,W,1,05,2.5,342.9,M,-33.1,M,,0000*60
$GPGSA,A,3,17,06,19,02,12,,,,,,,,4.7,2.5,4.0*3B
$GPGSV,3,1,12,06,77,335,33,19,66,063,31,17,51,089,30,02,48,261,35*79
$GPGSV,3,2,12,12,36,310,24,03,10,037,,24,10,263,,28,08,156,*7F
$GPGSV,3,3,12,23,08,073,,09,07,106,,05,07,198,16,25,01,325,*79
$GPRMC,045112.000,A,4030.9792,N,07955.1376,W,0.52,157.04,250218,,,A*7C
$GPVTG,157.04,T,,M,0.52,N,1.0,K,A*0C
$GPGGA,045113.000,4030.9793,N,07955.1377,W,1,05,2.5,343.0,M,-33.1,M,,0000*69
$GPGSA,A,3,17,06,19,02,12,,,,,,,,4.7,2.5,4.0*3B
$GPRMC,045113.000,A,4030.9793,N,07955.1377,W,0.54,160.66,250218,,,A*7B
$GPVTG,160.66,T,,M,0.54,N,1.0,K,A*0A
$GPGGA,045114.000,4030.9789,N,07955.1376,W,1,05,2.5,343.7,M,-33.1,M,,0000*63
$GPGSA,A,3,17,06,19,02,12,,,,,,,,4.7,2.5,4.0*3B
$GPRMC,045114.000,A,4030.9789,N,07955.1376,W,0.99,164.62,250218,,,A*77
$GPVTG,164.62,T,,M,0.99,N,1.8,K,A*03
$GPGGA,045115.000,4030.9782,N,07955.1375,W,1,05,2.5,344.8,M,-33.1,M,,0000*62
$GPGSA,A,3,17,06,19,02,12,,,,,,,,4.7,2.5,4.0*3B
$GPRMC,045115.000,A,4030.9782,N,07955.1375,W,0.81,170.12,250218,,,A*75
$GPVTG,170.12,T,,M,0.81,N,1.5,K,A*05
$GPGGA,045116.000,4030.9778,N,07955.1375,W,1,05,2.5,345.6,M,-33.1,M,,0000*6B
$GPGSA,A,3,17,06,19,02,12,,,,,,,,4.7,2.5,4.0*3B
$GPRMC,045116.000,A,4030.9778,N,07955.1375,W,0.15,322.00,250218,,,A*78
$GPVTG,322.00,T,,M,0.15,N,0.3,K,A*09
$GPGGA,045117.000,4030.9777,N,07955.1375,W,1,05,2.5,346.2,M,-33.1,M,,0000*62
$GPGSA,A,3,17,06,19,02,12,,,,,,,,4.7,2.5,4.0*3B
$GPGSV,3,1,12,06,77,336,33,19,66,063,31,17,51,089,29,02,48,261,35*72
$GPGSV,3,2,12,12,36,310,24,03,10,037,,24,10,263,,28,08,156,*7F
$GPGSV,3,3,12,23,08,073,,09,07,106,,05,07,198,16,25,01,325,*79
$GPRMC,045117.000,A,4030.9777,N,07955.1375,W,0.04,59.00,250218,,,A*49
$GPVTG,59.00,T,,M,0.04,N,0.1,K,A*34
$GPGGA,045118.000,4030.9772,N,07955.1374,W,1,05,2.5,347.2,M,-33.1,M,,0000*68
$GPGSA,A,3,17,06,19,02,12,,,,,,,,4.7,2.5,4.0*3B
$GPRMC,045118.000,A,4030.9772,N,07955.1374,W,0.04,332.14,250218,,,A*79
$GPVTG,332.14,T,,M,0.04,N,0.1,K,A*0F
$GPGGA,045119.000,4030.9771,N,07955.1374,W,1,05,2.5,347.8,M,-33.1,M,,0000*60
$GPGSA,A,3,17,06,19,02,12,,,,,,,,4.7,2.5,4.0*3B
$GPRMC,045119.000,A,4030.9771,N,07955.1374,W,0.17,151.18,250218,,,A*72
$GPVTG,151.18,T,,M,0.17,N,0.3,K,A*04
$GPGGA,045120.000,4030.9770,N,07955.1374,W,1,05,2.5,348.5,M,-33.1,M,,0000*69
$GPGSA,A,3,17,06,19,02,12,,,,,,,,4.7,2.5,4.0*3B
$GPRMC,045120.000,A,4030.9770,N,07955.1374,W,0.23,166.63,250218,,,A*76
$GPVTG,166.63,T,,M,0.23,N,0.4,K,A*0C
$GPGGA,045121.000,4030.9772,N,07955.1375,W,1,05,2.5,348.6,M,-33.1,M,,0000*68
$GPGSA,A,3,17,06,19,02,12,,,,,,,,4.7,2.5,4.0*3B
$GPRMC,045121.000,A,4030.9772,N,07955.1375,W,0.45,343.32,250218,,,A*75
$GPVTG,343.32,T,,M,0.45,N,0.8,K,A*01
$GPGGA,045122.000,4030.9774,N,07955.1376,W,1,05,2.5,348.9,M,-33.1,M,,0000*61
$GPGSA,A,3,17,06,19,02,12,,,,,,,,4.7,2.5,4.0*3B
$GPGSV,3,1,12,06,77,336,33,19,66,063,31,17,51,089,25,02,48,261,35*7E
$GPGSV,3,2,12,12,36,310,24,03,10,037,,24,10,263,,28,08,156,*7F
$GPGSV,3,3,12,23,08,073,,09,07,106,,05,07,198,17,25,01,325,*78
$GPRMC,045122.000,A,4030.9774,N,07955.1376,W,0.39,350.93,250218,,,A*71
$GPVTG,350.93,T,,M,0.39,N,0.7,K,A*0C
$GPGGA,045123.000,4030.9779,N,07955.1378,W,1,05,2.5,349.0,M,-33.1,M,,0000*6B
$GPGSA,A,3,17,06,19,02,12,,,,,,,,4.7,2.5,4.0*3B
$GPRMC,045123.000,A,4030.9779,N,07955.1378,W,0.58,319.94,250218,,,A*7E
$GPVTG,319.94,T,,M,0.58,N,1.1,K,A*06
$GPGGA,045124.000,4030.9778,N,07955.1377,W,1,05,2.5,348.8,M,-33.1,M,,0000*6B
$GPGSA,A,3,17,06,19,02,12,,,,,,,,4.7,2.5,4.0*3B
$GPRMC,045124.000,A,4030.9778,N,07955.1377,W,0.32,181.84,250218,,,A*79
$GPVTG,181.84,T,,M,0.32,N,0.6,K,A*0E
$GPGGA,045125.000,4030.9778,N,07955.1377,W,1,05,2.5,348.8,M,-33.1,M,,0000*6A
$GPGSA,A,3,17,06,19,02,12,,,,,,,,4.7,2.5,4.0*3B
$GPRMC,045125.000,A,4030.9778,N,07955.1377,W,0.10,300.85,250218,,,A*72
$GPVTG,300.85,T,,M,0.10,N,0.2,K,A*00
$GPGGA,045126.000,4030.9779,N,07955.1378,W,1,05,2.5,349.6,M,-33.1,M,,0000*68
$GPGSA,A,3,17,06,19,02,12,,,,,,,,4.7,2.5,4.0*3B
$GPRMC,045126.000,A,4030.9779,N,07955.1378,W,0.11,159.07,250218,,,A*7A
$GPVTG,159.07,T,,M,0.11,N,0.2,K,A*05
$GPGGA,045127.000,4030.9783,N,07955.1383,W,1,05,2.5,351.2,M,-33.1,M,,0000*65
$GPGSA,A,3,17,06,19,02,12,,,,,,,,4.7,2.5,4.0*3B
$GPGSV,3,1,12,06,77,336,33,19,66,063,31,17,51,089,23,02,48,261,35*78
$GPGSV,3,2,12,12,36,310,24,03,10,037,,24,10,263,,28,08,156,*7F
$GPGSV,3,3,12,23,08,073,,09,07,106,,05,07,198,17,25,01,325,*78
$GPRMC,045127.000,A,4030.9783,N,07955.1383,W,0.74,324.42,250218,,,A*70
$GPVTG,324.42,T,,M,0.74,N,1.4,K,A*08
$GPGGA,045128.000,4030.9787,N,07955.1388,W,1,05,2.5,352.5,M,-33.1,M,,0000*61
$GPGSA,A,3,17,06,19,02,12,,,,,,,,4.7,2.5,4.0*3B
$GPRMC,045128.000,A,4030.9787,N,07955.1388,W,0.61,327.28,250218,,,A*7B
$GPVTG,327.28,T,,M,0.61,N,1.1,K,A*06
$GPGGA,045129.000,4030.9792,N,07955.1394,W,1,05,2.5,354.6,M,-33.1,M,,0000*6C
$GPGSA,A,3,17,06,19,02,12,,,,,,,,4.7,2.5,4.0*3B
$GPRMC,045129.000,A,4030.9792,N,07955.1394,W,0.51,329.61,250218,,,A*73
$GPVTG,329.61,T,,M,0.51,N,0.9,K,A*0F
$GPGGA,045130.000,4030.9797,N,07955.1400,W,1,05,2.5,356.7,M,-33.1,M,,0000*68
$GPGSA,A,3,17,06,19,02,12,,,,,,,,4.7,2.5,4.0*3B
$GPRMC,045130.000,A,4030.9797,N,07955.1400,W,0.38,332.69,250218,,,A*79
$GPVTG,332.69,T,,M,0.38,N,0.7,K,A*0C
$GPGGA,045131.000,4030.9800,N,07955.1404,W,1,05,2.5,358.6,M,-33.1,M,,0000*63
$GPGSA,A,3,17,06,19,02,12,,,,,,,,4.7,2.5,4.0*3B
$GPRMC,045131.000,A,4030.9800,N,07955.1404,W,0.46,324.79,250218,,,A*72
$GPVTG,324.79,T,,M,0.46,N,0.9,K,A*0D
$GPGGA,045132.000,4030.9804,N,07955.1410,W,1,05,2.5,360.7,M,-33.1,M,,0000*6B
$GPGSA,A,3,17,06,19,02,12,,,,,,,,4.7,2.5,4.0*3B
$GPGSV,3,1,12,06,77,336,33,19,66,063,30,17,51,089,23,02,48,261,35*79
$GPGSV,3,2,12,12,36,310,25,03,10,037,,24,10,263,,28,08,156,*7E
$GPGSV,3,3,12,23,08,073,,09,07,106,,05,07,198,17,25,01,325,*78
$GPRMC,045132.000,A,4030.9804,N,07955.1410,W,0.31,326.64,250218,,,A*7E
$GPVTG,326.64,T,,M,0.31,N,0.6,K,A*0C
$GPGGA,045133.000,4030.9807,N,07955.1415,W,1,05,2.5,363.0,M,-33.1,M,,0000*68
$GPGSA,A,3,17,06,19,02,12,,,,,,,,4.7,2.5,4.0*3B
$GPRMC,045133.000,A,4030.9807,N,07955.1415,W,0.25,342.88,250218,,,A*7C
$GPVTG,342.88,T,,M,0.25,N,0.5,K,A*0A
$GPGGA,045134.000,4030.9811,N,07955.1420,W,1,05,2.5,365.3,M,-33.1,M,,0000*6B
$GPGSA,A,3,17,06,19,02,12,,,,,,,,4.7,2.5,4.0*3B
$GPRMC,045134.000,A,4030.9811,N,07955.1420,W,0.28,333.98,250218,,,A*70
$GPVTG,333.98,T,,M,0.28,N,0.5,K,A*00
$GPGGA,045135.000,4030.9812,N,07955.1423,W,1,05,2.5,366.8,M,-33.1,M,,0000*62
$GPGSA,A,3,17,06,19,02,12,,,,,,,,4.7,2.5,4.0*3B
$GPRMC,045135.000,A,4030.9812,N,07955.1423,W,0.28,325.34,250218,,,A*70
$GPVTG,325.34,T,,M,0.28,N,0.5,K,A*01
$GPGGA,045136.000,4030.9815,N,07955.1427,W,1,05,2.5,369.0,M,-33.1,M,,0000*65
$GPGSA,A,3,17,06,19,02,12,,,,,,,,4.7,2.5,4.0*3B
$GPRMC,045136.000,A,4030.9815,N,07955.1427,W,0.67,313.16,250218,,,A*7E
$GPVTG,313.16,T,,M,0.67,N,1.2,K,A*09
$GPGGA,045137.000,4030.9818,N,07955.1431,W,1,05,2.5,370.8,M,-33.1,M,,0000*6E
$GPGSA,A,3,17,06,19,02,12,,,,,,,,4.7,2.5,4.0*3B
$GPGSV,3,1,12,06,77,336,33,19,66,063,30,17,51,089,23,02,48,261,35*79
$GPGSV,3,2,12,12,36,310,27,03,10,037,,24,10,263,18,28,08,156,*75
$GPGSV,3,3,12,23,08,073,,09,07,106,,05,07,198,18,25,01,325,*77
$GPRMC,045137.000,A,4030.9818,N,07955.1431,W,0.28,340.91,250218,,,A*77
$GPVTG,340.91,T,,M,0.28,N,0.5,K,A*0D
$GPGGA,045138.000,4030.9817,N,07955.1431,W,1,05,2.5,371.5,M,-33.1,M,,0000*62
$GPGSA,A,3,17,06,19,02,12,,,,,,,,4.7,2.5,4.0*3B
$GPRMC,045138.000,A,4030.9817,N,07955.1431,W,0.18,66.10,250218,,,A*4A
$GPVTG,66.10,T,,M,0.18,N,0.3,K,A*36
$GPGGA,045139.000,4030.9819,N,07955.1434,W,1,05,2.5,373.2,M,-33.1,M,,0000*6D
$GPGSA,A,3,17,06,19,02,12,,,,,,,,4.7,2.5,4.0*3B
$GPRMC,045139.000,A,4030.9819,N,07955.1434,W,0.09,18.72,250218,,,A*4D
$GPVTG,18.72,T,,M,0.09,N,0.2,K,A*3A
$GPGGA,045140.000,4030.9820,N,07955.1434,W,1,05,2.5,374.1,M,-33.1,M,,0000*6D
$GPGSA,A,3,17,06,19,02,12,,,,,,,,4.7,2.5,4.0*3B
$GPRMC,045140.000,A,4030.9820,N,07955.1434,W,0.33,316.71,250218,,,A*7E
$GPVTG,316.71,T,,M,0.33,N,0.6,K,A*09
$GPGGA,045141.000,4030.9823,N,07955.1440,W,1,05,2.5,376.5,M,-33.1,M,,0000*6A
$GPGSA,A,3,17,06,19,02,12,,,,,,,,4.7,2.5,4.0*3B
$GPRMC,045141.000,A,4030.9823,N,07955.1440,W,0.18,13.01,250218,,,A*47
$GPVTG,13.01,T,,M,0.18,N,0.3,K,A*34
$GPGGA,045142.000,4030.9823,N,07955.1440,W,1,05,2.5,377.2,M,-33.1,M,,0000*6F
$GPGSA,A,3,17,06,19,02,12,,,,,,,,4.7,2.5,4.0*3B
$GPGSV,3,1,12,06,77,336,32,19,66,064,29,17,50,089,19,02,48,261,34*7E
$GPGSV,3,2,12,12,36,310,28,24,09,263,18,03,09,037,,28,08,156,*7A
$GPGSV,3,3,12,23,08,073,,09,07,106,,05,07,198,19,25,01,325,*76
$GPRMC,045142.000,A,4030.9823,N,07955.1440,W,0.19,84.59,250218,,,A*46
$GPVTG,84.59,T,,M,0.19,N,0.4,K,A*31
$GPGGA,045143.000,4030.9822,N,07955.1438,W,1,05,2.5,377.3,M,-33.1,M,,0000*61
$GPGSA,A,3,17,06,19,02,12,,,,,,,,4.7,2.5,4.0*3B
$GPRMC,045143.000,A,4030.9822,N,07955.1438,W,0.15,97.35,250218,,,A*4D
$GPVTG,97.35,T,,M,0.15,N,0.3,K,A*32
$GPGGA,045144.000,4030.9823,N,07955.1438,W,1,05,2.5,378.2,M,-33.1,M,,0000*69
$GPGSA,A,3,17,06,19,02,12,,,,,,,,4.7,2.5,4.0*3B
$GPRMC,045144.000,A,4030.9823,N,07955.1438,W,0.57,303.25,250218,,,A*72
$GPVTG,303.25,T,,M,0.57,N,1.1,K,A*08
$GPGGA,045145.000,4030.9823,N,07955.1438,W,1,05,2.5,378.5,M,-33.1,M,,0000*6F
$GPGSA,A,3,17,06,19,02,12,,,,,,,,4.7,2.5,4.0*3B
$GPRMC,045145.000,A,4030.9823,N,07955.1438,W,0.82,309.58,250218,,,A*7B
$GPVTG,309.58,T,,M,0.82,N,1.5,K,A*04
$GPGGA,045146.000,4030.9823,N,07955.1438,W,1,05,2.5,378.7,M,-33.1,M,,0000*6E
$GPGSA,A,3,17,06,19,02,12,,,,,,,,4.7,2.5,4.0*3B
$GPRMC,045146.000,A,4030.9823,N,07955.1438,W,0.86,313.38,250218,,,A*71
$GPVTG,313.38,T,,M,0.86,N,1.6,K,A*0E
$GPGGA,045147.000,4030.9823,N,07955.1439,W,1,05,2.5,379.1,M,-33.1,M,,0000*69
$GPGSA,A,3,17,06,19,02,12,,,,,,,,4.7,2.5,4.0*3B
$GPGSV,3,1,12,06,77,337,32,19,66,064,30,17,50,089,18,02,48,261,34*76
$GPGSV,3,2,12,12,36,310,29,24,09,263,17,03,09,037,,23,08,073,*79
$GPGSV,3,3,12,28,08,156,,05,07,198,20,09,07,108,,25,01,325,*7F
$GPRMC,045147.000,A,4030.9823,N,07955.1439,W,0.64,325.17,250218,,,A*75
$GPVTG,325.17,T,,M,0.64,N,1.2,K,A*0E
$GPGGA,045148.000,4030.9823,N,07955.1438,W,1,05,2.5,379.3,M,-33.1,M,,0000*65
$GPGSA,A,3,17,06,19,02,12,,,,,,,,4.7,2.5,4.0*3B
$GPRMC,045148.000,A,4030.9823,N,07955.1438,W,0.60,319.56,250218,,,A*75
$GPVTG,319.56,T,,M,0.60,N,1.1,K,A*03
$GPGGA,045149.000,4030.9824,N,07955.1438,W,1,05,2.5,379.7,M,-33.1,M,,0000*67
$GPGSA,A,3,17,06,19,02,12,,,,,,,,4.7,2.5,4.0*3B
$GPRMC,045149.000,A,4030.9824,N,07955.1438,W,0.85,308.77,250218,,,A*7B
$GPVTG,308.77,T,,M,0.85,N,1.6,K,A*0C
$GPGGA,045150.000,4030.9824,N,07955.1438,W,1,05,2.5,380.0,M,-33.1,M,,0000*6E
$GPGSA,A,3,17,06,19,02,12,,,,,,,,4.7,2.5,4.0*3B
$GPRMC,045150.000,A,4030.9824,N,07955.1438,W,0.91,312.15,250218,,,A*79
$GPVTG,312.15,T,,M,0.91,N,1.7,K,A*07
$GPGGA,045151.000,4030.9825,N,07955.1439,W,1,05,2.5,380.5,M,-33.1,M,,0000*6A
$GPGSA,A,3,17,06,19,02,12,,,,,,,,4.7,2.5,4.0*3B
$GPRMC,045151.000,A,4030.9825,N,07955.1439,W,0.65,320.65,250218,,,A*75
$GPVTG,320.65,T,,M,0.65,N,1.2,K,A*0F
$GPGGA,045152.000,4030.9826,N,07955.1440,W,1,05,2.5,381.1,M,-33.1,M,,0000*61
$GPGSA,A,3,17,06,19,02,12,,,,,,,,4.7,2.5,4.0*3B
$GPGSV,3,1,12,06,77,337,32,19,66,064,30,17,50,089,18,02,48,261,33*71
$GPGSV,3,2,12,12,36,310,30,24,09,263,,03,09,037,,23,08,073,*77
$GPGSV,3,3,12,28,08,156,,05,07,198,20,09,07,108,,25,01,325,*7F
$GPRMC,045152.000,A,4030.9826,N,07955.1440,W,0.95,315.55,250218,,,A*71
$GPVTG,315.55,T,,M,0.95,N,1.8,K,A*0F
$GPGGA,045153.000,4030.9828,N,07955.1442,W,1,05,2.5,381.9,M,-33.1,M,,0000*64
$GPGSA,A,3,17,06,19,02,12,,,,,,,,4.7,2.5,4.0*3B
$GPRMC,045153.000,A,4030.9828,N,07955.1442,W,1.00,311.67,250218,,,A*74
$GPVTG,311.67,T,,M,1.00,N,1.9,K,A*06
$GPGGA,045154.000,4030.9829,N,07955.1443,W,1,05,2.5,382.5,M,-33.1,M,,0000*6C
$GPGSA,A,3,17,06,19,02,12,,,,,,,,4.7,2.5,4.0*3B
$GPRMC,045154.000,A,4030.9829,N,07955.1443,W,0.93,313.41,250218,,,A*7E
$GPVTG,313.41,T,,M,0.93,N,1.7,K,A*05
$GPGGA,045155.000,4030.9829,N,07955.1442,W,1,05,2.5,382.4,M,-33.1,M,,0000*6D
$GPGSA,A,3,17,06,19,02,12,,,,,,,,4.7,2.5,4.0*3B
$GPRMC,045155.000,A,4030.9829,N,07955.1442,W,0.70,321.78,250218,,,A*78
$GPVTG,321.78,T,,M,0.70,N,1.3,K,A*07
$GPGGA,045156.000,4030.9830,N,07955.1443,W,1,05,2.5,383.0,M,-33.1,M,,0000*62
$GPGSA,A,3,17,06,19,02,12,,,,,,,,4.7,2.5,4.0*3B
$GPRMC,045156.000,A,4030.9830,N,07955.1443,W,0.64,321.39,250218,,,A*72
$GPVTG,321.39,T,,M,0.64,N,1.2,K,A*06
$GPGGA,045157.000,4030.9831,N,07955.1444,W,1,05,2.5,383.4,M,-33.1,M,,0000*61
$GPGSA,A,3,17,06,19,02,12,,,,,,,,4.7,2.5,4.0*3B
$GPGSV,3,1,12,06,77,337,32,19,66,064,30,17,50,089,17,02,48,261,34*79
$GPGSV,3,2,12,12,36,310,30,24,09,263,,03,09,037,,23,08,073,*77
$GPGSV,3,3,12,28,08,156,,05,07,198,20,09,07,108,,25,01,325,*7F
$GPRMC,045157.000,A,4030.9831,N,07955.1444,W,0.80,315.02,250218,,,A*70
$GPVTG,315.02,T,,M,0.80,N,1.5,K,A*04
$GPGGA,045158.000,4030.9834,N,07955.1447,W,1,05,2.5,384.7,M,-33.1,M,,0000*6C
$GPGSA,A,3,17,06,19,02,12,,,,,,,,4.7,2.5,4.0*3B
$GPRMC,045158.000,A,4030.9834,N,07955.1447,W,0.70,318.64,250218,,,A*7B
$GPVTG,318.64,T,,M,0.70,N,1.3,K,A*00
$GPGGA,045159.000,4030.9836,N,07955.1449,W,1,05,2.5,385.8,M,-33.1,M,,0000*6F
$GPGSA,A,3,17,06,19,02,12,,,,,,,,4.7,2.5,4.0*3B
$GPRMC,045159.000,A,4030.9836,N,07955.1449,W,0.46,332.34,250218,,,A*7E
$GPVTG,332.34,T,,M,0.46,N,0.9,K,A*03
$GPGGA,045200.000,4030.9838,N,07955.1451,W,1,05,2.5,386.7,M,-33.1,M,,0000*6B
$GPGSA,A,3,17,06,19,02,12,,,,,,,,4.7,2.5,4.0*3B
$GPRMC,045200.000,A,4030.9838,N,07955.1451,W,0.26,358.52,250218,,,A*7C
$GPVTG,358.52,T,,M,0.26,N,0.5,K,A*05
$GPGGA,045201.000,4030.9843,N,07955.1457,W,1,05,2.5,389.0,M,-33.1,M,,0000*68
$GPGSA,A,3,17,06,19,02,12,,,,,,,,4.7,2.5,4.0*3B
$GPRMC,045201.000,A,4030.9843,N,07955.1457,W,0.58,315.61,250218,,,A*77
$GPVTG,315.61,T,,M,0.58,N,1.1,K,A*00
$GPGGA,045202.000,4030.9845,N,07955.1458,W,1,05,2.5,389.7,M,-33.1,M,,0000*65
$GPGSA,A,3,17,06,19,02,12,,,,,,,,4.7,2.5,4.0*3B
$GPGSV,3,1,12,06,77,337,32,19,66,064,30,17,50,089,23,02,48,261,34*7E
$GPGSV,3,2,12,12,36,310,30,24,09,263,,03,09,037,,23,08,073,*77
$GPGSV,3,3,12,28,08,156,,05,07,198,19,09,07,108,,25,01,325,*75
$GPRMC,045202.000,A,4030.9845,N,07955.1458,W,0.27,2.99,250218,,,A*77
$GPVTG,2.99,T,,M,0.27,N,0.5,K,A*0F
$GPGGA,045203.000,4030.9848,N,07955.1462,W,1,05,2.5,391.2,M,-33.1,M,,0000*6C
$GPGSA,A,3,17,06,19,02,12,,,,,,,,4.7,2.5,4.0*3B
$GPRMC,045203.000,A,4030.9848,N,07955.1462,W,0.25,42.94,250218,,,A*49
$GPVTG,42.94,T,,M,0.25,N,0.5,K,A*34
$GPGGA,045204.000,4030.9853,N,07955.1467,W,1,05,2.5,393.5,M,-33.1,M,,0000*61
$GPGSA,A,3,17,06,19,02,12,,,,,,,,4.7,2.5,4.0*3B
$GPRMC,045204.000,A,4030.9853,N,07955.1467,W,0.42,324.97,250218,,,A*70
$GPVTG,324.97,T,,M,0.42,N,0.8,K,A*08
$GPGGA,045205.000,4030.9855,N,07955.1469,W,1,05,2.5,394.5,M,-33.1,M,,0000*6F
$GPGSA,A,3,17,06,19,02,12,,,,,,,,4.7,2.5,4.0*3B
$GPRMC,045205.000,A,4030.9855,N,07955.1469,W,0.35,335.63,250218,,,A*72
$GPVTG,335.63,T,,M,0.35,N,0.6,K,A*0D
$GPGGA,045206.000,4030.9855,N,07955.1467,W,1,05,2.5,394.0,M,-33.1,M,,0000*67
$GPGSA,A,3,17,06,19,02,12,,,,,,,,4.7,2.5,4.0*3B
$GPRMC,045206.000,A,4030.9855,N,07955.1467,W,0.22,23.93,250218,,,A*42
$GPVTG,23.93,T,,M,0.22,N,0.4,K,A*32
$GPGGA,045207.000,4030.9854,N,07955.1465,W,1,05,2.5,393.6,M,-33.1,M,,0000*64
$GPGSA,A,3,17,06,19,02,12,,,,,,,,4.7,2.5,4.0*3B
$GPGSV,3,1,12,06,77,337,32,19,66,064,29,17,50,089,20,02,48,261,34*75
$GPGSV,3,2,12,12,36,310,31,24,09,263,,03,09,037,,23,08,073,*76
$GPGSV,3,3,12,28,08,156,,05,07,198,20,09,07,108,,25,01,325,*7F
$GPRMC,045207.000,A,4030.9854,N,07955.1465,W,0.27,78.26,250218,,,A*45
$GPVTG,78.26,T,,M,0.27,N,0.5,K,A*36
$GPGGA,045208.000,4030.9855,N,07955.1465,W,1,05,2.5,394.0,M,-33.1,M,,0000*6B
$GPGSA,A,3,17,06,19,02,12,,,,,,,,4.7,2.5,4.0*3B
$GPRMC,045208.000,A,4030.9855,N,07955.1465,W,0.49,316.51,250218,,,A*78
$GPVTG,316.51,T,,M,0.49,N,0.9,K,A*09
$GPGGA,045209.000,4030.9857,N,07955.1466,W,1,05,2.5,394.4,M,-33.1,M,,0000*6F
$GPGSA,A,3,17,06,19,02,12,,,,,,,,4.7,2.5,4.0*3B
$GPRMC,045209.000,A,4030.9857,N,07955.1466,W,0.45,317.46,250218,,,A*73
$GPVTG,317.46,T,,M,0.45,N,0.8,K,A*03
$GPGGA,045210.000,4030.9859,N,07955.1468,W,1,05,2.5,395.1,M,-33.1,M,,0000*63
$GPGSA,A,3,17,06,19,02,12,,,,,,,,4.7,2.5,4.0*3B
$GPRMC,045210.000,A,4030.9859,N,07955.1468,W,0.47,326.04,250218,,,A*7D
$GPVTG,326.04,T,,M,0.47,N,0.9,K,A*04
$GPGGA,045211.000,4030.9861,N,07955.1470,W,1,05,2.5,395.9,M,-33.1,M,,0000*68
$GPGSA,A,3,17,06,19,02,12,,,,,,,,4.7,2.5,4.0*3B
$GPRMC,045211.000,A,4030.9861,N,07955.1470,W,0.47,323.60,250218,,,A*79
$GPVTG,323.60,T,,M,0.47,N,0.9,K,A*03
$GPGGA,045212.000,4030.9862,N,07955.1471,W,1,05,2.5,396.3,M,-33.1,M,,0000*60
$GPGSA,A,3,17,06,19,02,12,,,,,,,,4.7,2.5,4.0*3B
$GPGSV,3,1,12,06,77,338,32,19,66,064,29,17,50,089,18,02,48,261,34*71
$GPGSV,3,2,12,12,36,310,32,24,09,263,,03,09,037,,23,08,073,*75
$GPGSV,3,3,12,28,08,156,,05,07,198,19,09,07,108,,25,02,325,*76
$GPRMC,045212.000,A,4030.9862,N,07955.1471,W,0.44,322.34,250218,,,A*7B
$GPVTG,322.34,T,,M,0.44,N,0.8,K,A*01
$GPGGA,045213.000,4030.9864,N,07955.1472,W,1,05,2.5,396.9,M,-33.1,M,,0000*6E
$GPGSA,A,3,17,06,19,02,12,,,,,,,,4.7,2.5,4.0*3B
$GPRMC,045213.000,A,4030.9864,N,07955.1472,W,0.70,315.69,250218,,,A*74
$GPVTG,315.69,T,,M,0.70,N,1.3,K,A*00
$GPGGA,045214.000,4030.9864,N,07955.1472,W,1,05,2.5,396.8,M,-33.1,M,,0000*68
$GPGSA,A,3,17,06,19,02,12,,,,,,,,4.7,2.5,4.0*3B
$GPRMC,045214.000,A,4030.9864,N,07955.1472,W,0.45,326.83,250218,,,A*71
$GPVTG,326.83,T,,M,0.45,N,0.8,K,A*08
$GPGGA,045215.000,4030.9864,N,07955.1471,W,1,05,2.5,396.6,M,-33.1,M,,0000*64
$GPGSA,A,3,17,06,19,02,12,,,,,,,,4.7,2.5,4.0*3B
$GPRMC,045215.000,A,4030.9864,N,07955.1471,W,0.25,1.16,250218,,,A*7F
$GPVTG,1.16,T,,M,0.25,N,0.5,K,A*09
$GPGGA,045216.000,4030.9863,N,07955.1469,W,1,05,2.5,396.4,M,-33.1,M,,0000*6B
$GPGSA,A,3,17,06,19,02,12,,,,,,,,4.7,2.5,4.0*3B
$GPRMC,045216.000,A,4030.9863,N,07955.1469,W,0.17,14.52,250218,,,A*47
$GPVTG,14.52,T,,M,0.17,N,0.3,K,A*3A
$GPGGA,045217.000,4030.9864,N,07955.1468,W,1,05,2.5,396.3,M,-33.1,M,,0000*6B
$GPGSA,A,3,17,06,19,02,12,,,,,,,,4.7,2.5,4.0*3B
$GPGSV,3,1,12,06,77,338,33,19,66,065,29,17,50,089,19,02,48,261,34*70
$GPGSV,3,2,12,12,36,310,33,24,09,263,,03,09,037,,23,08,073,*74
$GPGSV,3,3,12,28,08,156,,05,08,198,11,09,07,108,,25,02,325,*71
$GPRMC,045217.000,A,4030.9864,N,07955.1468,W,0.21,66.57,250218,,,A*45
$GPVTG,66.57,T,,M,0.21,N,0.4,K,A*38
$GPGGA,045218.000,4030.9863,N,07955.1466,W,1,05,2.5,395.9,M,-33.1,M,,0000*64
$GPGSA,A,3,17,06,19,02,12,,,,,,,,4.7,2.5,4.0*3B
$GPRMC,045218.000,A,4030.9863,N,07955.1466,W,0.13,50.20,250218,,,A*47
$GPVTG,50.20,T,,M,0.13,N,0.2,K,A*3A
$GPGGA,045219.000,4030.9864,N,07955.1467,W,1,05,2.5,396.2,M,-33.1,M,,0000*6B
$GPGSA,A,3,17,06,19,02,12,,,,,,,,4.7,2.5,4.0*3B
$GPRMC,045219.000,A,4030.9864,N,07955.1467,W,0.33,315.06,250218,,,A*74
$GPVTG,315.06,T,,M,0.33,N,0.6,K,A*0A
$GPGGA,045220.000,4030.9864,N,07955.1466,W,1,05,2.5,396.1,M,-33.1,M,,0000*63
$GPGSA,A,3,17,06,19,02,12,,,,,,,,4.7,2.5,4.0*3B
$GPRMC,045220.000,A,4030.9864,N,07955.1466,W,0.28,337.01,250218,,,A*72
$GPVTG,337.01,T,,M,0.28,N,0.5,K,A*04
$GPGGA,045221.000,4030.9863,N,07955.1464,W,1,05,2.5,395.5,M,-33.1,M,,0000*60
$GPGSA,A,3,17,06,19,02,12,,,,,,,,4.7,2.5,4.0*3B
$GPRMC,045221.000,A,4030.9863,N,07955.1464,W,0.24,337.53,250218,,,A*7D
$GPVTG,337.53,T,,M,0.24,N,0.4,K,A*0E
$GPGGA,045222.000,4030.9861,N,07955.1461,W,1,05,2.5,394.4,M,-33.1,M,,0000*64
$GPGSA,A,3,17,06,19,02,12,,,,,,,,4.7,2.5,4.0*3B
$GPGSV,3,1,12,06,77,338,33,19,66,065,29,17,50,089,19,02,48,261,34*70
$GPGSV,3,2,12,12,36,310,34,24,09,263,,03,09,037,,23,08,073,*73
$GPGSV,3,3,12,28,08,156,,05,08,198,,09,07,108,,25,02,325,*71
$GPRMC,045222.000,A,4030.9861,N,07955.1461,W,0.33,315.39,250218,,,A*73
$GPVTG,315.39,T,,M,0.33,N,0.6,K,A*06
$GPGGA,045223.000,4030.9858,N,07955.1455,W,1,05,2.5,392.3,M,-33.1,M,,0000*69
$GPGSA,A,3,17,06,19,02,12,,,,,,,,4.7,2.5,4.0*3B
$GPRMC,045223.000,A,4030.9858,N,07955.1455,W,0.19,65.66,250218,,,A*49
$GPVTG,65.66,T,,M,0.19,N,0.4,K,A*32
$GPGGA,045224.000,4030.9855,N,07955.1450,W,1,05,2.5,390.4,M,-33.1,M,,0000*63
$GPGSA,A,3,17,06,19,02,12,,,,,,,,4.7,2.5,4.0*3B
$GPRMC,045224.000,A,4030.9855,N,07955.1450,W,0.41,308.19,250218,,,A*7B
$GPVTG,308.19,T,,M,0.41,N,0.8,K,A*03
$GPGGA,045225.000,4030.9852,N,07955.1445,W,1,05,2.5,388.5,M,-33.1,M,,0000*69
$GPGSA,A,3,17,06,19,02,12,,,,,,,,4.7,2.5,4.0*3B
$GPRMC,045225.000,A,4030.9852,N,07955.1445,W,0.13,352.19,250218,,,A*71
$GPVTG,352.19,T,,M,0.13,N,0.2,K,A*01
$GPGGA,045226.000,4030.9847,N,07955.1437,W,1,05,2.5,385.8,M,-33.1,M,,0000*6B
$GPGSA,A,3,17,06,19,02,12,,,,,,,,4.7,2.5,4.0*3B
$GPRMC,045226.000,A,4030.9847,N,07955.1437,W,0.43,106.83,250218,,,A*76
$GPVTG,106.83,T,,M,0.43,N,0.8,K,A*0E
$GPGGA,045227.000,4030.9843,N,07955.1430,W,1,05,2.5,383.3,M,-33.1,M,,0000*64
$GPGSA,A,3,17,06,19,02,12,,,,,,,,4.7,2.5,4.0*3B
$GPGSV,3,1,12,06,77,338,33,19,66,065,29,17,50,089,18,02,48,261,34*71
$GPGSV,3,2,12,12,36,310,34,24,09,263,,03,09,037,,23,08,073,*73
$GPGSV,3,3,12,28,08,156,,05,08,198,,09,07,108,,25,02,325,*71
$GPRMC,045227.000,A,4030.9843,N,07955.1430,W,0.72,115.09,250218,,,A*76
$GPVTG,115.09,T,,M,0.72,N,1.3,K,A*06
$GPGGA,045228.000,4030.9837,N,07955.1421,W,1,05,2.5,380.3,M,-33.1,M,,0000*6B
$GPGSA,A,3,17,06,19,02,12,,,,,,,,4.7,2.5,4.0*3B
$GPRMC,045228.000,A,4030.9837,N,07955.1421,W,0.91,121.92,250218,,,A*72
$GPVTG,121.92,T,,M,0.91,N,1.7,K,A*0A
$GPGGA,045229.000,4030.9833,N,07955.1415,W,1,05,2.5,378.1,M,-33.1,M,,0000*6C
$GPGSA,A,3,17,06,19,02,12,,,,,,,,4.7,2.5,4.0*3B
$GPRMC,045229.000,A,4030.9833,N,07955.1415,W,0.52,129.58,250218,,,A*71
$GPVTG,129.58,T,,M,0.52,N,1.0,K,A*0C
$GPGGA,045230.000,4030.9830,N,07955.1409,W,1,05,2.5,376.1,M,-33.1,M,,0000*64
$GPGSA,A,3,17,06,19,02,12,,,,,,,,4.7,2.5,4.0*3B
$GPRMC,045230.000,A,4030.9830,N,07955.1409,W,0.48,125.01,250218,,,A*7C
$GPVTG,125.01,T,,M,0.48,N,0.9,K,A*0F
$GPGGA,045231.000,4030.9827,N,07955.1404,W,1,05,2.5,374.0,M,-33.1,M,,0000*6D
$GPGSA,A,3,17,06,19,02,12,,,,,,,,4.7,2.5,4.0*3B
$GPRMC,045231.000,A,4030.9827,N,07955.1404,W,0.52,125.34,250218,,,A*7B
$GPVTG,125.34,T,,M,0.52,N,1.0,K,A*0A
$GPGGA,045232.000,4030.9824,N,07955.1400,W,1,05,2.5,372.4,M,-33.1,M,,0000*6B
$GPGSA,A,3,17,06,19,02,12,,,,,,,,4.7,2.5,4.0*3B
$GPGSV,3,1,12,06,77,338,33,19,66,065,29,17,50,089,18,02,48,261,34*71
$GPGSV,3,2,12,12,36,310,34,24,09,263,,03,09,037,,23,08,073,*73
$GPGSV,3,3,12,28,08,156,,05,08,198,14,09,07,108,,25,02,325,*74
$GPRMC,045232.000,A,4030.9824,N,07955.1400,W,0.48,128.12,250218,,,A*7D
$GPVTG,128.12,T,,M,0.48,N,0.9,K,A*00
$GPGGA,045233.000,4030.9822,N,07955.1396,W,1,05,2.5,370.7,M,-33.1,M,,0000*65
$GPGSA,A,3,17,06,19,02,12,,,,,,,,4.7,2.5,4.0*3B
$GPRMC,045233.000,A,4030.9822,N,07955.1396,W,0.13,144.66,250218,,,A*75
$GPVTG,144.66,T,,M,0.13,N,0.2,K,A*0C
$GPGGA,045234.000,4030.9820,N,07955.1393,W,1,05,2.5,369.3,M,-33.1,M,,0000*69
$GPGSA,A,3,17,06,19,02,12,,,,,,,,4.7,2.5,4.0*3B
$GPRMC,045234.000,A,4030.9820,N,07955.1393,W,0.22,118.95,250218,,,A*72
$GPVTG,118.95,T,,M,0.22,N,0.4,K,A*0D
$GPGGA,045235.000,4030.9816,N,07955.1387,W,1,05,2.5,367.0,M,-33.1,M,,0000*65
$GPGSA,A,3,17,06,19,02,12,,,,,,,,4.7,2.5,4.0*3B
$GPRMC,045235.000,A,4030.9816,N,07955.1387,W,0.78,118.03,250218,,,A*73
$GPVTG,118.03,T,,M,0.78,N,1.4,K,A*0C
$GPGGA,045236.000,4030.9814,N,07955.1383,W,1,05,2.5,365.6,M,-33.1,M,,0000*64
$GPGSA,A,3,17,06,19,02,12,,,,,,,,4.7,2.5,4.0*3B
$GPRMC,045236.000,A,4030.9814,N,07955.1383,W,0.79,124.34,250218,,,A*7C
$GPVTG,124.34,T,,M,0.79,N,1.5,K,A*07
$GPGGA,045237.000,4030.9813,N,07955.1382,W,1,05,2.5,364.8,M,-33.1,M,,0000*6C
$GPGSA,A,3,17,06,19,02,12,,,,,,,,4.7,2.5,4.0*3B
$GPGSV,3,1,12,06,77,338,33,19,66,065,29,17,50,089,18,02,48,261,35*70
$GPGSV,3,2,12,12,36,310,35,24,09,263,,03,09,037,,23,08,073,*72
$GPGSV,3,3,12,28,08,156,,05,08,198,14,09,07,108,,25,02,325,*74
$GPRMC,045237.000,A,4030.9813,N,07955.1382,W,0.49,130.67,250218,,,A*7B
$GPVTG,130.67,T,,M,0.49,N,0.9,K,A*0A
$GPGGA,045238.000,4030.9813,N,07955.1381,W,1,05,2.5,364.2,M,-33.1,M,,0000*6A
$GPGSA,A,3,17,06,19,02,12,,,,,,,,4.7,2.5,4.0*3B
$GPRMC,045238.000,A,4030.9813,N,07955.1381,W,0.56,125.48,250218,,,A*70
$GPVTG,125.48,T,,M,0.56,N,1.0,K,A*05
$GPGGA,045239.000,4030.9821,N,07955.1393,W,1,05,2.5,368.2,M,-33.1,M,,0000*65
$GPGSA,A,3,17,06,19,02,12,,,,,,,,4.7,2.5,4.0*3B
$GPRMC,045239.000,A,4030.9821,N,07955.1393,W,0.07,143.67,250218,,,A*7A
$GPVTG,143.67,T,,M,0.07,N,0.1,K,A*0C
$GPGGA,045240.000,4030.9827,N,07955.1402,W,1,05,2.5,371.3,M,-33.1,M,,0000*6B
$GPGSA,A,3,17,06,19,02,12,,,,,,,,4.7,2.5,4.0*3B
$GPRMC,045240.000,A,4030.9827,N,07955.1402,W,0.07,64.53,250218,,,A*4E
$GPVTG,64.53,T,,M,0.07,N,0.1,K,A*3F
$GPGGA,045241.000,4030.9833,N,07955.1410,W,1,05,2.5,373.9,M,-33.1,M,,0000*64
$GPGSA,A,3,17,06,19,02,12,,,,,,,,4.7,2.5,4.0*3B
$GPRMC,045241.000,A,4030.9833,N,07955.1410,W,0.10,36.21,250218,,,A*4D
$GPVTG,36.21,T,,M,0.10,N,0.2,K,A*38
$GPGGA,045242.000,4030.9838,N,07955.1417,W,1,05,2.5,376.2,M,-33.1,M,,0000*65
$GPGSA,A,3,17,06,19,02,12,,,,,,,,4.7,2.5,4.0*3B
$GPGSV,3,1,12,06,77,338,34,19,66,065,30,17,50,089,26,02,48,261,35*72
$GPGSV,3,2,12,12,36,310,35,24,09,263,,03,09,037,,23,08,073,*72
$GPGSV,3,3,12,28,08,156,,05,08,198,14,09,07,108,,25,02,325,*74
$GPRMC,045242.000,A,4030.9838,N,07955.1417,W,0.08,15.20,250218,,,A*4B
$GPVTG,15.20,T,,M,0.08,N,0.2,K,A*31
$GPGGA,045243.000,4030.9841,N,07955.1422,W,1,05,2.5,378.1,M,-33.1,M,,0000*61
$GPGSA,A,3,17,06,19,02,12,,,,,,,,4.7,2.5,4.0*3B
$GPRMC,045243.000,A,4030.9841,N,07955.1422,W,0.09,28.61,250218,,,A*48
$GPVTG,28.61,T,,M,0.09,N,0.2,K,A*3B
$GPGGA,045244.000,4030.9845,N,07955.1426,W,1,05,2.5,379.7,M,-33.1,M,,0000*61
$GPGSA,A,3,17,06,19,02,12,,,,,,,,4.7,2.5,4.0*3B
$GPRMC,045244.000,A,4030.9845,N,07955.1426,W,0.10,17.50,250218,,,A*49
$GPVTG,17.50,T,,M,0.10,N,0.2,K,A*3D
$GPGGA,045245.000,4030.9847,N,07955.1430,W,1,05,2.5,381.1,M,-33.1,M,,0000*64
$GPGSA,A,3,17,06,19,02,12,,,,,,,,4.7,2.5,4.0*3B
$GPRMC,045245.000,A,4030.9847,N,07955.1430,W,0.11,16.12,250218,,,A*4B
$GPVTG,16.12,T,,M,0.11,N,0.2,K,A*3B
$GPGGA,045246.000,4030.9850,N,07955.1433,W,1,05,2.5,382.2,M,-33.1,M,,0000*62
$GPGSA,A,3,17,06,19,02,12,,,,,,,,4.7,2.5,4.0*3B
$GPRMC,045246.000,A,4030.9850,N,07955.1433,W,0.12,1.10,250218,,,A*7A
$GPVTG,1.10,T,,M,0.12,N,0.2,K,A*0C
$GPGGA,045247.000,4030.9852,N,07955.1435,W,1,05,2.5,383.1,M,-33.1,M,,0000*65
$GPGSA,A,3,17,06,19,02,12,,,,,,,,4.7,2.5,4.0*3B
$GPGSV,3,1,12,06,77,339,34,19,66,065,31,17,50,090,27,02,49,262,35*79
$GPGSV,3,2,12,12,36,310,36,24,09,263,,03,09,037,,23,08,072,*70
$GPGSV,3,3,12,05,08,198,15,28,08,156,,09,08,107,,25,02,325,*75
$GPRMC,045247.000,A,4030.9852,N,07955.1435,W,0.14,7.41,250218,,,A*7B
$GPVTG,7.41,T,,M,0.14,N,0.3,K,A*09
$GPGGA,045248.000,4030.9853,N,07955.1436,W,1,05,2.5,383.8,M,-33.1,M,,0000*61
$GPGSA,A,3,17,06,19,02,12,,,,,,,,4.7,2.5,4.0*3B
$GPRMC,045248.000,A,4030.9853,N,07955.1436,W,0.15,3.27,250218,,,A*73
$GPVTG,3.27,T,,M,0.15,N,0.3,K,A*0C
$GPGGA,045249.000,4030.9852,N,07955.1433,W,1,05,2.5,382.8,M,-33.1,M,,0000*65
$GPGSA,A,3,17,06,19,02,12,,,,,,,,4.7,2.5,4.0*3B
$GPRMC,045249.000,A,4030.9852,N,07955.1433,W,0.15,32.54,250218,,,A*40
$GPVTG,32.54,T,,M,0.15,N,0.3,K,A*3A
$GPGGA,045250.000,4030.9850,N,07955.1430,W,1,05,2.5,381.8,M,-33.1,M,,0000*6F
$GPGSA,A,3,17,06,19,02,12,,,,,,,,4.7,2.5,4.0*3B
$GPRMC,045250.000,A,4030.9850,N,07955.1430,W,0.11,49.37,250218,,,A*44
$GPVTG,49.37,T,,M,0.11,N,0.2,K,A*36
$GPGGA,045251.000,4030.9849,N,07955.1427,W,1,05,2.5,380.8,M,-33.1,M,,0000*61
$GPGSA,A,3,17,06,19,02,12,,,,,,,,4.7,2.5,4.0*3B
$GPRMC,045251.000,A,4030.9849,N,07955.1427,W,0.10,70.25,250218,,,A*43
$GPVTG,70.25,T,,M,0.10,N,0.2,K,A*3E
$GPGGA,045252.000,4030.9848,N,07955.1425,W,1,05,2.5,380.1,M,-33.1,M,,0000*68
$GPGSA,A,3,17,06,19,02,12,,,,,,,,4.7,2.5,4.0*3B
$GPGSV,3,1,12,06,77,339,35,19,66,065,31,17,50,090,26,02,49,262,35*79
$GPGSV,3,2,12,12,36,310,37,24,09,263,,03,09,037,,23,08,072,*71
$GPGSV,3,3,12,05,08,198,16,28,08,156,,09,08,107,,25,02,325,*76
$GPRMC,045252.000,A,4030.9848,N,07955.1425,W,0.14,82.10,250218,,,A*4C
$GPVTG,82.10,T,,M,0.14,N,0.3,K,A*30
$GPGGA,045253.000,4030.9845,N,07955.1420,W,1,05,2.5,378.4,M,-33.1,M,,0000*63
$GPGSA,A,3,17,06,19,02,12,,,,,,,,4.7,2.5,4.0*3B
$GPRMC,045253.000,A,4030.9845,N,07955.1420,W,0.35,101.80,250218,,,A*75
$GPVTG,101.80,T,,M,0.35,N,0.7,K,A*04
$GPGGA,045254.000,4030.9842,N,07955.1414,W,1,05,2.5,376.3,M,-33.1,M,,0000*6D
$GPGSA,A,3,17,06,19,02,12,,,,,,,,4.7,2.5,4.0*3B
$GPRMC,045254.000,A,4030.9842,N,07955.1414,W,0.64,105.96,250218,,,A*75
$GPVTG,105.96,T,,M,0.64,N,1.2,K,A*07
$GPGGA,045255.000,4030.9838,N,07955.1407,W,1,05,2.5,374.3,M,-33.1,M,,0000*61
$GPGSA,A,3,17,06,19,02,12,,,,,,,,4.7,2.5,4.0*3B
$GPRMC,045255.000,A,4030.9838,N,07955.1407,W,0.17,128.17,250218,,,A*79
$GPVTG,128.17,T,,M,0.17,N,0.3,K,A*05
$GPGGA,045256.000,4030.9836,N,07955.1403,W,1,05,2.5,372.8,M,-33.1,M,,0000*65
$GPGSA,A,3,17,06,19,02,12,,,,,,,,4.7,2.5,4.0*3B
$GPRMC,045256.000,A,4030.9836,N,07955.1403,W,0.04,178.15,250218,,,A*7